{
"type": "FeatureCollection",
"name": "Downtown_Institutions",
"crs": { "type": "name", "properties": { "name": "urn:ogc:def:crs:EPSG::3857" } },
"features": [
{ "type": "Feature", "properties": { "fid": 1, "objectid": "2041", "ipedsid": "441131", "name": "THE SEATTLE SCHOOL OF THEOLOGY & PSYCHOLOGY", "address": "2501 ELLIOTT AVENUE", "city": "SEATTLE", "state": "WA", "zip": "98121", "zip4": "NOT AVAILABLE", "telephone": "(206) 876-6132", "type": "2", "status": "A", "population": "384", "county": "KING", "countyfips": "53033", "country": "USA", "latitude": "47.613373453000065", "longitude": "-122.35094540699998", "naics_code": "611310", "naics_desc": "COLLEGES, UNIVERSITIES, AND PROFESSIONAL SCHOOLS", "source": "https://nces.ed.gov/collegenavigator/?id=441131", "sourcedate": "2009-10-13T02:00:00", "val_method": "IMAGERY", "val_date": "2016-08-02T02:00:00", "website": "www.theseattleschool.edu/", "stfips": "53", "cofips": "033", "sector": "2", "level": "3", "hi_offer": "20", "deg_grant": "1", "locale": "11", "close_date": "-2", "merge_id": "-2", "alias": "THE SEATTLE SCHOOL", "size_set": "26", "inst_size": "1", "pt_enroll": "66", "ft_enroll": "200", "tot_enroll": "266", "housing": "2", "dorm_cap": "-999", "tot_emp": "118", "shelter_id": "NOT AVAILABLE" }, "geometry": { "type": "Point", "coordinates": [ -13620044.94078285060823, 6042773.292754902504385 ] } },
{ "type": "Feature", "properties": { "fid": 2, "objectid": "2662", "ipedsid": "449889", "name": "AMERICAN COLLEGE OF EDUCATION", "address": "101 WEST OHIO STREET, SUITE 1200", "city": "INDIANAPOLIS", "state": "IN", "zip": "46204", "zip4": "NOT AVAILABLE", "telephone": "(800) 280-0307", "type": "3", "status": "A", "population": "8517", "county": "MARION", "countyfips": "18097", "country": "USA", "latitude": "39.76982362900003", "longitude": "-86.16004661199997", "naics_code": "611310", "naics_desc": "COLLEGES, UNIVERSITIES, AND PROFESSIONAL SCHOOLS", "source": "https://nces.ed.gov/collegenavigator/?id=449889", "sourcedate": "2011-06-02T02:00:00", "val_method": "IMAGERY/OTHER", "val_date": "2019-03-07T01:00:00", "website": "www.ace.edu/", "stfips": "18", "cofips": "097", "sector": "3", "level": "2", "hi_offer": "12", "deg_grant": "1", "locale": "11", "close_date": "-2", "merge_id": "-2", "alias": "NOT AVAILABLE", "size_set": "32", "inst_size": "3", "pt_enroll": "-999", "ft_enroll": "8112", "tot_enroll": "8112", "housing": "2", "dorm_cap": "-999", "tot_emp": "405", "shelter_id": "NOT AVAILABLE" }, "geometry": { "type": "Point", "coordinates": [ -9591292.515572553500533, 4832549.837290100753307 ] } },
{ "type": "Feature", "properties": { "fid": 3, "objectid": "1074", "ipedsid": "139940", "name": "GEORGIA STATE UNIVERSITY", "address": "33 GILMER ST", "city": "ATLANTA", "state": "GA", "zip": "30303", "zip4": "3083", "telephone": "(404) 413-2000", "type": "1", "status": "A", "population": "41786", "county": "FULTON", "countyfips": "13121", "country": "USA", "latitude": "33.75269953700007", "longitude": "-84.38666979499999", "naics_code": "611310", "naics_desc": "COLLEGES, UNIVERSITIES, AND PROFESSIONAL SCHOOLS", "source": "https://nces.ed.gov/collegenavigator/?id=139940", "sourcedate": "2009-12-10T01:00:00", "val_method": "IMAGERY", "val_date": "2016-07-26T02:00:00", "website": "www.gsu.edu/", "stfips": "13", "cofips": "121", "sector": "1", "level": "1", "hi_offer": "11", "deg_grant": "1", "locale": "11", "close_date": "-2", "merge_id": "-2", "alias": "NOT AVAILABLE", "size_set": "15", "inst_size": "5", "pt_enroll": "8533", "ft_enroll": "27827", "tot_enroll": "36360", "housing": "1", "dorm_cap": "5414", "tot_emp": "5426", "shelter_id": "NOT AVAILABLE" }, "geometry": { "type": "Point", "coordinates": [ -9393881.111319517716765, 3995643.756921520922333 ] } },
{ "type": "Feature", "properties": { "fid": 4, "objectid": "1515", "ipedsid": "413413", "name": "CAPELLA UNIVERSITY", "address": "225 SOUTH 6TH STREET, 9TH FLOOR", "city": "MINNEAPOLIS", "state": "MN", "zip": "55402", "zip4": "3389", "telephone": "(866) 808-4080", "type": "3", "status": "A", "population": "40828", "county": "HENNEPIN", "countyfips": "27053", "country": "USA", "latitude": "44.976185978000046", "longitude": "-93.26871350799996", "naics_code": "611310", "naics_desc": "COLLEGES, UNIVERSITIES, AND PROFESSIONAL SCHOOLS", "source": "https://nces.ed.gov/collegenavigator/?id=413413", "sourcedate": "2009-10-13T02:00:00", "val_method": "IMAGERY", "val_date": "2016-06-16T02:00:00", "website": "www.capella.edu/", "stfips": "27", "cofips": "053", "sector": "3", "level": "1", "hi_offer": "12", "deg_grant": "1", "locale": "11", "close_date": "-2", "merge_id": "-2", "alias": "NOT AVAILABLE", "size_set": "17", "inst_size": "5", "pt_enroll": "31439", "ft_enroll": "7491", "tot_enroll": "38930", "housing": "2", "dorm_cap": "-999", "tot_emp": "1898", "shelter_id": "NOT AVAILABLE" }, "geometry": { "type": "Point", "coordinates": [ -10382625.694654271006584, 5617773.23460145201534 ] } },
{ "type": "Feature", "properties": { "fid": 5, "objectid": "5470", "ipedsid": "236595", "name": "SEATTLE UNIVERSITY", "address": "900 BROADWAY", "city": "SEATTLE", "state": "WA", "zip": "98122", "zip4": "4340", "telephone": "(206) 296-6000", "type": "2", "status": "A", "population": "8581", "county": "KING", "countyfips": "53033", "country": "USA", "latitude": "47.61013789500004", "longitude": "-122.319699905", "naics_code": "611310", "naics_desc": "COLLEGES, UNIVERSITIES, AND PROFESSIONAL SCHOOLS", "source": "https://nces.ed.gov/collegenavigator/?id=236595", "sourcedate": "2009-10-13T02:00:00", "val_method": "IMAGERY", "val_date": "2016-08-02T02:00:00", "website": "www.seattleu.edu/", "stfips": "53", "cofips": "033", "sector": "2", "level": "2", "hi_offer": "11", "deg_grant": "1", "locale": "11", "close_date": "-2", "merge_id": "-2", "alias": "SEATTLE U", "size_set": "18", "inst_size": "3", "pt_enroll": "1420", "ft_enroll": "5630", "tot_enroll": "7050", "housing": "1", "dorm_cap": "2448", "tot_emp": "1531", "shelter_id": "NOT AVAILABLE" }, "geometry": { "type": "Point", "coordinates": [ -13616566.707410633563995, 6042239.019656430929899 ] } },
{ "type": "Feature", "properties": { "fid": 6, "objectid": "5927", "ipedsid": "444699", "name": "INSTITUTE OF CLINICAL ACUPUNCTURE & ORIENTAL MED", "address": "100 N. BERETANIA STREET, SUITE 203B", "city": "HONOLULU", "state": "HI", "zip": "96817", "zip4": "NOT AVAILABLE", "telephone": "(808) 521-2288", "type": "3", "status": "A", "population": "74", "county": "HONOLULU", "countyfips": "15003", "country": "USA", "latitude": "21.313924490000034", "longitude": "-157.86087907399997", "naics_code": "611310", "naics_desc": "COLLEGES, UNIVERSITIES, AND PROFESSIONAL SCHOOLS", "source": "https://nces.ed.gov/collegenavigator/?id=444699", "sourcedate": "2009-10-13T02:00:00", "val_method": "GEOCODE", "val_date": "2016-06-20T02:00:00", "website": "www.orientalmedicine.edu/", "stfips": "15", "cofips": "003", "sector": "3", "level": "1", "hi_offer": "20", "deg_grant": "1", "locale": "11", "close_date": "-2", "merge_id": "-2", "alias": "NOT AVAILABLE", "size_set": "26", "inst_size": "1", "pt_enroll": "3", "ft_enroll": "51", "tot_enroll": "54", "housing": "2", "dorm_cap": "-999", "tot_emp": "20", "shelter_id": "NOT AVAILABLE" }, "geometry": { "type": "Point", "coordinates": [ -17572992.674696210771799, 2429350.335819395724684 ] } },
{ "type": "Feature", "properties": { "fid": 7, "objectid": "6166", "ipedsid": "211893", "name": "CURTIS INSTITUTE OF MUSIC", "address": "1726 LOCUST ST", "city": "PHILADELPHIA", "state": "PA", "zip": "19103", "zip4": "NOT AVAILABLE", "telephone": "(215) 435-1698", "type": "2", "status": "A", "population": "313", "county": "PHILADELPHIA", "countyfips": "42101", "country": "USA", "latitude": "39.94857108200006", "longitude": "-75.17094964499995", "naics_code": "611310", "naics_desc": "COLLEGES, UNIVERSITIES, AND PROFESSIONAL SCHOOLS", "source": "https://nces.ed.gov/collegenavigator/?id=211893", "sourcedate": "2009-10-13T02:00:00", "val_method": "IMAGERY/OTHER", "val_date": "2016-07-05T02:00:00", "website": "www.curtis.edu/", "stfips": "42", "cofips": "101", "sector": "2", "level": "1", "hi_offer": "20", "deg_grant": "1", "locale": "11", "close_date": "-2", "merge_id": "-2", "alias": "NOT AVAILABLE", "size_set": "30", "inst_size": "1", "pt_enroll": "-999", "ft_enroll": "145", "tot_enroll": "145", "housing": "1", "dorm_cap": "87", "tot_emp": "168", "shelter_id": "NOT AVAILABLE" }, "geometry": { "type": "Point", "coordinates": [ -8367991.836928203701973, 4858471.581328303553164 ] } },
{ "type": "Feature", "properties": { "fid": 8, "objectid": "4852", "ipedsid": "168005", "name": "SUFFOLK UNIVERSITY", "address": "73 TREMONT ST.", "city": "BOSTON", "state": "MA", "zip": "02108", "zip4": "3901", "telephone": "(617) 573-8754", "type": "2", "status": "A", "population": "8115", "county": "SUFFOLK", "countyfips": "25025", "country": "USA", "latitude": "42.35801020900004", "longitude": "-71.06098451499997", "naics_code": "611310", "naics_desc": "COLLEGES, UNIVERSITIES, AND PROFESSIONAL SCHOOLS", "source": "https://nces.ed.gov/collegenavigator/?id=168005", "sourcedate": "2009-10-13T02:00:00", "val_method": "IMAGERY", "val_date": "2016-06-28T02:00:00", "website": "https://www.suffolk.edu/", "stfips": "25", "cofips": "025", "sector": "2", "level": "2", "hi_offer": "11", "deg_grant": "1", "locale": "11", "close_date": "-2", "merge_id": "-2", "alias": "NOT AVAILABLE", "size_set": "17", "inst_size": "3", "pt_enroll": "1352", "ft_enroll": "5478", "tot_enroll": "6830", "housing": "1", "dorm_cap": "1545", "tot_emp": "1285", "shelter_id": "NOT AVAILABLE" }, "geometry": { "type": "Point", "coordinates": [ -7910472.611478495411575, 5214759.41652917675674 ] } },
{ "type": "Feature", "properties": { "fid": 9, "objectid": "1208", "ipedsid": "146241", "name": "THE JOHN MARSHALL LAW SCHOOL", "address": "315 S PLYMOUTH CT", "city": "CHICAGO", "state": "IL", "zip": "60604", "zip4": "NOT AVAILABLE", "telephone": "NOT AVAILABLE", "type": "2", "status": "C", "population": "-999", "county": "COOK", "countyfips": "17031", "country": "USA", "latitude": "41.87760217400006", "longitude": "-87.62845183899998", "naics_code": "611310", "naics_desc": "COLLEGES, UNIVERSITIES, AND PROFESSIONAL SCHOOLS", "source": "https://nces.ed.gov/collegenavigator/?id=146241", "sourcedate": "2009-10-13T02:00:00", "val_method": "IMAGERY/OTHER", "val_date": "2015-12-01T01:00:00", "website": "NOT AVAILABLE", "stfips": "17", "cofips": "031", "sector": "2", "level": "2", "hi_offer": "13", "deg_grant": "1", "locale": "11", "close_date": "-2", "merge_id": "145600", "alias": "NOT AVAILABLE", "size_set": "31", "inst_size": "-2", "pt_enroll": "-999", "ft_enroll": "-999", "tot_enroll": "-999", "housing": "-1", "dorm_cap": "-999", "tot_emp": "-999", "shelter_id": "NOT AVAILABLE" }, "geometry": { "type": "Point", "coordinates": [ -9754754.637720374390483, 5142662.439975551329553 ] } },
{ "type": "Feature", "properties": { "fid": 10, "objectid": "2281", "ipedsid": "449764", "name": "VISIBLE MUSIC COLLEGE", "address": "200 MADISON AVE", "city": "MEMPHIS", "state": "TN", "zip": "38103", "zip4": "NOT AVAILABLE", "telephone": "(901) 381-3939", "type": "2", "status": "A", "population": "281", "county": "SHELBY", "countyfips": "47157", "country": "USA", "latitude": "35.14458600000006", "longitude": "-90.04938099999998", "naics_code": "611310", "naics_desc": "COLLEGES, UNIVERSITIES, AND PROFESSIONAL SCHOOLS", "source": "https://nces.ed.gov/collegenavigator/?id=449764", "sourcedate": "2009-12-31T01:00:00", "val_method": "IMAGERY/OTHER", "val_date": "2019-03-27T01:00:00", "website": "www.visible.edu/", "stfips": "47", "cofips": "157", "sector": "2", "level": "1", "hi_offer": "20", "deg_grant": "1", "locale": "11", "close_date": "-2", "merge_id": "-2", "alias": "NOT AVAILABLE", "size_set": "30", "inst_size": "1", "pt_enroll": "112", "ft_enroll": "97", "tot_enroll": "209", "housing": "1", "dorm_cap": "127", "tot_emp": "72", "shelter_id": "NOT AVAILABLE" }, "geometry": { "type": "Point", "coordinates": [ -10024251.239169482141733, 4183547.204650364350528 ] } },
{ "type": "Feature", "properties": { "fid": 11, "objectid": "2908", "ipedsid": "144883", "name": "EAST-WEST UNIVERSITY", "address": "816 S MICHIGAN AVE", "city": "CHICAGO", "state": "IL", "zip": "60605", "zip4": "NOT AVAILABLE", "telephone": "(312) 939-0111", "type": "2", "status": "A", "population": "475", "county": "COOK", "countyfips": "17031", "country": "USA", "latitude": "41.87130881100006", "longitude": "-87.62479272699994", "naics_code": "611310", "naics_desc": "COLLEGES, UNIVERSITIES, AND PROFESSIONAL SCHOOLS", "source": "https://nces.ed.gov/collegenavigator/?id=144883", "sourcedate": "2009-10-13T02:00:00", "val_method": "IMAGERY/OTHER", "val_date": "2016-06-24T02:00:00", "website": "www.eastwest.edu/", "stfips": "17", "cofips": "031", "sector": "2", "level": "1", "hi_offer": "30", "deg_grant": "1", "locale": "11", "close_date": "-2", "merge_id": "-2", "alias": "NOT AVAILABLE", "size_set": "21", "inst_size": "1", "pt_enroll": "5", "ft_enroll": "414", "tot_enroll": "419", "housing": "2", "dorm_cap": "-999", "tot_emp": "56", "shelter_id": "NOT AVAILABLE" }, "geometry": { "type": "Point", "coordinates": [ -9754347.307235775515437, 5141721.578715028241277 ] } },
{ "type": "Feature", "properties": { "fid": 12, "objectid": "4573", "ipedsid": "245883", "name": "ANTIOCH UNIVERSITY-SEATTLE", "address": "2326 6TH AVE", "city": "SEATTLE", "state": "WA", "zip": "98121", "zip4": "1814", "telephone": "(206) 441-5352", "type": "2", "status": "A", "population": "885", "county": "KING", "countyfips": "53033", "country": "USA", "latitude": "47.617190711000035", "longitude": "-122.34251152299998", "naics_code": "611310", "naics_desc": "COLLEGES, UNIVERSITIES, AND PROFESSIONAL SCHOOLS", "source": "https://nces.ed.gov/collegenavigator/?id=245883", "sourcedate": "2009-10-13T02:00:00", "val_method": "IMAGERY/OTHER", "val_date": "2015-08-25T02:00:00", "website": "www.antiochseattle.edu/", "stfips": "53", "cofips": "033", "sector": "2", "level": "3", "hi_offer": "13", "deg_grant": "1", "locale": "11", "close_date": "-2", "merge_id": "-2", "alias": "NOT AVAILABLE", "size_set": "19", "inst_size": "1", "pt_enroll": "294", "ft_enroll": "441", "tot_enroll": "735", "housing": "2", "dorm_cap": "-999", "tot_emp": "150", "shelter_id": "NOT AVAILABLE" }, "geometry": { "type": "Point", "coordinates": [ -13619106.085110561922193, 6043403.661858192645013 ] } },
{ "type": "Feature", "properties": { "fid": 13, "objectid": "6167", "ipedsid": "214883", "name": "PEIRCE COLLEGE", "address": "1420 PINE STREET", "city": "PHILADELPHIA", "state": "PA", "zip": "19102", "zip4": "4699", "telephone": "(888) 467-3472", "type": "2", "status": "A", "population": "1298", "county": "PHILADELPHIA", "countyfips": "42101", "country": "USA", "latitude": "39.945482937000065", "longitude": "-75.16633206399996", "naics_code": "611310", "naics_desc": "COLLEGES, UNIVERSITIES, AND PROFESSIONAL SCHOOLS", "source": "https://nces.ed.gov/collegenavigator/?id=214883", "sourcedate": "2009-10-13T02:00:00", "val_method": "IMAGERY/OTHER", "val_date": "2016-07-05T02:00:00", "website": "https://www.peirce.edu/", "stfips": "42", "cofips": "101", "sector": "2", "level": "1", "hi_offer": "20", "deg_grant": "1", "locale": "11", "close_date": "-2", "merge_id": "-2", "alias": "NOT AVAILABLE", "size_set": "22", "inst_size": "2", "pt_enroll": "809", "ft_enroll": "237", "tot_enroll": "1046", "housing": "2", "dorm_cap": "-999", "tot_emp": "252", "shelter_id": "NOT AVAILABLE" }, "geometry": { "type": "Point", "coordinates": [ -8367477.810162588022649, 4858023.168196505866945 ] } },
{ "type": "Feature", "properties": { "fid": 14, "objectid": "1084", "ipedsid": "115083", "name": "GOLDEN GATE UNIVERSITY-SAN FRANCISCO", "address": "536 MISSION STREET", "city": "SAN FRANCISCO", "state": "CA", "zip": "94105", "zip4": "2968", "telephone": "(415) 442-7800", "type": "2", "status": "A", "population": "2940", "county": "SAN FRANCISCO", "countyfips": "06075", "country": "USA", "latitude": "37.78920777700006", "longitude": "-122.39878475499995", "naics_code": "611310", "naics_desc": "COLLEGES, UNIVERSITIES, AND PROFESSIONAL SCHOOLS", "source": "https://nces.ed.gov/collegenavigator/?id=115083", "sourcedate": "2009-10-13T02:00:00", "val_method": "IMAGERY", "val_date": "2016-07-15T02:00:00", "website": "www.ggu.edu/", "stfips": "06", "cofips": "075", "sector": "2", "level": "2", "hi_offer": "11", "deg_grant": "1", "locale": "11", "close_date": "-2", "merge_id": "-2", "alias": "NOT AVAILABLE", "size_set": "18", "inst_size": "2", "pt_enroll": "1269", "ft_enroll": "1203", "tot_enroll": "2472", "housing": "2", "dorm_cap": "-999", "tot_emp": "468", "shelter_id": "NOT AVAILABLE" }, "geometry": { "type": "Point", "coordinates": [ -13625370.392642091959715, 4549690.588870164006948 ] } },
{ "type": "Feature", "properties": { "fid": 15, "objectid": "1729", "ipedsid": "228194", "name": "SOUTH TEXAS COLLEGE OF LAW HOUSTON", "address": "1303 SAN JACINTO STREET", "city": "HOUSTON", "state": "TX", "zip": "77002", "zip4": "NOT AVAILABLE", "telephone": "(713) 659-8040", "type": "2", "status": "A", "population": "1250", "county": "HARRIS", "countyfips": "48201", "country": "USA", "latitude": "29.75317116000008", "longitude": "-95.36454951499996", "naics_code": "611310", "naics_desc": "COLLEGES, UNIVERSITIES, AND PROFESSIONAL SCHOOLS", "source": "https://nces.ed.gov/collegenavigator/?id=228194", "sourcedate": "2009-10-13T02:00:00", "val_method": "IMAGERY/OTHER", "val_date": "2016-07-06T02:00:00", "website": "www.stcl.edu/", "stfips": "48", "cofips": "201", "sector": "2", "level": "3", "hi_offer": "13", "deg_grant": "1", "locale": "11", "close_date": "-2", "merge_id": "-2", "alias": "NOT AVAILABLE", "size_set": "31", "inst_size": "1", "pt_enroll": "220", "ft_enroll": "779", "tot_enroll": "999", "housing": "2", "dorm_cap": "-999", "tot_emp": "251", "shelter_id": "NOT AVAILABLE" }, "geometry": { "type": "Point", "coordinates": [ -10615933.091739719733596, 3471861.590982663445175 ] } },
{ "type": "Feature", "properties": { "fid": 16, "objectid": "5918", "ipedsid": "440794", "name": "PILLAR COLLEGE", "address": "60 PARK PLACE, SUITE 701", "city": "NEWARK", "state": "NJ", "zip": "07102", "zip4": "NOT AVAILABLE", "telephone": "(973) 803-5000 EXT 2000", "type": "2", "status": "A", "population": "696", "county": "ESSEX", "countyfips": "34013", "country": "USA", "latitude": "40.73830200000003", "longitude": "-74.16889099999997", "naics_code": "611310", "naics_desc": "COLLEGES, UNIVERSITIES, AND PROFESSIONAL SCHOOLS", "source": "https://nces.ed.gov/collegenavigator/?id=440794", "sourcedate": "2009-12-31T01:00:00", "val_method": "IMAGERY/OTHER", "val_date": "2020-01-31T01:00:00", "website": "www.pillar.edu/", "stfips": "34", "cofips": "013", "sector": "2", "level": "1", "hi_offer": "20", "deg_grant": "1", "locale": "11", "close_date": "-2", "merge_id": "-2", "alias": "NOT AVAILABLE", "size_set": "24", "inst_size": "1", "pt_enroll": "158", "ft_enroll": "376", "tot_enroll": "534", "housing": "2", "dorm_cap": "-999", "tot_emp": "162", "shelter_id": "NOT AVAILABLE" }, "geometry": { "type": "Point", "coordinates": [ -8256443.178821807727218, 4973817.563463974744081 ] } },
{ "type": "Feature", "properties": { "fid": 17, "objectid": "6210", "ipedsid": "174437", "name": "NORTH CENTRAL UNIVERSITY", "address": "910 ELLIOT AVE", "city": "MINNEAPOLIS", "state": "MN", "zip": "55404", "zip4": "1391", "telephone": "(612) 343-4400", "type": "2", "status": "A", "population": "1297", "county": "HENNEPIN", "countyfips": "27053", "country": "USA", "latitude": "44.969388750000064", "longitude": "-93.26142912099994", "naics_code": "611310", "naics_desc": "COLLEGES, UNIVERSITIES, AND PROFESSIONAL SCHOOLS", "source": "https://nces.ed.gov/collegenavigator/?id=174437", "sourcedate": "2009-10-13T02:00:00", "val_method": "IMAGERY", "val_date": "2016-07-07T02:00:00", "website": "www.northcentral.edu/", "stfips": "27", "cofips": "053", "sector": "2", "level": "1", "hi_offer": "20", "deg_grant": "1", "locale": "11", "close_date": "-2", "merge_id": "-2", "alias": "NOT AVAILABLE", "size_set": "22", "inst_size": "2", "pt_enroll": "154", "ft_enroll": "908", "tot_enroll": "1062", "housing": "1", "dorm_cap": "913", "tot_emp": "235", "shelter_id": "NOT AVAILABLE" }, "geometry": { "type": "Point", "coordinates": [ -10381814.800402687862515, 5616703.658040349371731 ] } },
{ "type": "Feature", "properties": { "fid": 18, "objectid": "6350", "ipedsid": "493512", "name": "SAN DIEGO GLOBAL KNOWLEDGE UNIVERSITY", "address": "1095 K STREET, SUITE B", "city": "SAN DIEGO", "state": "CA", "zip": "92101", "zip4": "7446", "telephone": "(619) 934-0797", "type": "3", "status": "A", "population": "106", "county": "SAN DIEGO", "countyfips": "06073", "country": "USA", "latitude": "32.708222000000035", "longitude": "-117.15496599999994", "naics_code": "611310", "naics_desc": "COLLEGES, UNIVERSITIES, AND PROFESSIONAL SCHOOLS", "source": "https://nces.ed.gov/collegenavigator/?id=493512", "sourcedate": "2020-11-03T01:00:00", "val_method": "IMAGERY/OTHER", "val_date": "2020-11-03T01:00:00", "website": "www.sdgku.edu/", "stfips": "06", "cofips": "073", "sector": "3", "level": "3", "hi_offer": "20", "deg_grant": "1", "locale": "11", "close_date": "-2", "merge_id": "-2", "alias": "NOT AVAILABLE", "size_set": "-2", "inst_size": "1", "pt_enroll": "-999", "ft_enroll": "93", "tot_enroll": "93", "housing": "2", "dorm_cap": "-999", "tot_emp": "13", "shelter_id": "NOT AVAILABLE" }, "geometry": { "type": "Point", "coordinates": [ -13041631.159023273736238, 3856639.046200800687075 ] } },
{ "type": "Feature", "properties": { "fid": 19, "objectid": "6526", "ipedsid": "494551", "name": "GLASGOW CALEDONIAN NEW YORK COLLEGE", "address": "64 WOOSTER STREET", "city": "NEW YORK", "state": "NY", "zip": "10012", "zip4": "NOT AVAILABLE", "telephone": "(646) 768-5300", "type": "2", "status": "N", "population": "87", "county": "NEW YORK", "countyfips": "36061", "country": "USA", "latitude": "40.72328175100006", "longitude": "-74.00169889199998", "naics_code": "611310", "naics_desc": "COLLEGES, UNIVERSITIES, AND PROFESSIONAL SCHOOLS", "source": "https://nces.ed.gov/GLOBALLOCATOR/col_info_popup.asp?ID=494551", "sourcedate": "2020-09-15T02:00:00", "val_method": "IMAGERY/OTHER", "val_date": "2021-05-12T02:00:00", "website": "www.gcnyc.com/", "stfips": "36", "cofips": "061", "sector": "2", "level": "1", "hi_offer": "7", "deg_grant": "1", "locale": "11", "close_date": "-2", "merge_id": "-2", "alias": "NOT AVAILABLE", "size_set": "-2", "inst_size": "1", "pt_enroll": "46", "ft_enroll": "19", "tot_enroll": "65", "housing": "2", "dorm_cap": "-999", "tot_emp": "22", "shelter_id": "NOT AVAILABLE" }, "geometry": { "type": "Point", "coordinates": [ -8237831.43849459476769, 4971611.067977359518409 ] } },
{ "type": "Feature", "properties": { "fid": 20, "objectid": "3634", "ipedsid": "209807", "name": "PORTLAND STATE UNIVERSITY", "address": "724 SW HARRISON", "city": "PORTLAND", "state": "OR", "zip": "97201", "zip4": "NOT AVAILABLE", "telephone": "(503) 725-3000", "type": "1", "status": "A", "population": "26783", "county": "MULTNOMAH", "countyfips": "41051", "country": "USA", "latitude": "45.511697724000044", "longitude": "-122.68419723399995", "naics_code": "611310", "naics_desc": "COLLEGES, UNIVERSITIES, AND PROFESSIONAL SCHOOLS", "source": "https://nces.ed.gov/collegenavigator/?id=209807", "sourcedate": "2009-12-10T01:00:00", "val_method": "IMAGERY/OTHER", "val_date": "2016-08-18T02:00:00", "website": "www.pdx.edu/", "stfips": "41", "cofips": "051", "sector": "1", "level": "1", "hi_offer": "12", "deg_grant": "1", "locale": "11", "close_date": "-2", "merge_id": "-2", "alias": "NOT AVAILABLE", "size_set": "16", "inst_size": "5", "pt_enroll": "8573", "ft_enroll": "15067", "tot_enroll": "23640", "housing": "1", "dorm_cap": "2166", "tot_emp": "3143", "shelter_id": "10783959" }, "geometry": { "type": "Point", "coordinates": [ -13657142.364470416679978, 5702440.77601015381515 ] } },
{ "type": "Feature", "properties": { "fid": 21, "objectid": "4286", "ipedsid": "131803", "name": "STRAYER UNIVERSITY-DISTRICT OF COLUMBIA", "address": "1133 15TH ST NW", "city": "WASHINGTON", "state": "DC", "zip": "20005", "zip4": "NOT AVAILABLE", "telephone": "(877) 445-7180", "type": "3", "status": "A", "population": "3148", "county": "DISTRICT OF COLUMBIA", "countyfips": "11001", "country": "USA", "latitude": "38.90485070600005", "longitude": "-77.03434898699999", "naics_code": "611310", "naics_desc": "COLLEGES, UNIVERSITIES, AND PROFESSIONAL SCHOOLS", "source": "https://nces.ed.gov/collegenavigator/?id=131803", "sourcedate": "2009-10-13T02:00:00", "val_method": "IMAGERY/OTHER", "val_date": "2016-06-07T02:00:00", "website": "www.strayer.edu/campus-locations/district-columbia/washington", "stfips": "11", "cofips": "001", "sector": "3", "level": "1", "hi_offer": "20", "deg_grant": "1", "locale": "11", "close_date": "-2", "merge_id": "-2", "alias": "NOT AVAILABLE", "size_set": "19", "inst_size": "1", "pt_enroll": "661", "ft_enroll": "84", "tot_enroll": "745", "housing": "2", "dorm_cap": "-999", "tot_emp": "2403", "shelter_id": "NOT AVAILABLE" }, "geometry": { "type": "Point", "coordinates": [ -8575424.502824168652296, 4708051.402404857799411 ] } },
{ "type": "Feature", "properties": { "fid": 22, "objectid": "2641", "ipedsid": "448886", "name": "ARIZONA STATE UNIVERSITY-DOWNTOWN PHOENIX", "address": "411 N CENTRAL AVE", "city": "PHOENIX", "state": "AZ", "zip": "85004", "zip4": "NOT AVAILABLE", "telephone": "(855) 278-5080", "type": "1", "status": "G", "population": "-999", "county": "MARICOPA", "countyfips": "04013", "country": "USA", "latitude": "33.45283000000006", "longitude": "-112.07358099999999", "naics_code": "611310", "naics_desc": "COLLEGES, UNIVERSITIES, AND PROFESSIONAL SCHOOLS", "source": "https://nces.ed.gov/collegenavigator/?id=448886", "sourcedate": "2009-12-31T01:00:00", "val_method": "IMAGERY/OTHER", "val_date": "2015-11-04T01:00:00", "website": "www.asu.edu/", "stfips": "04", "cofips": "013", "sector": "1", "level": "3", "hi_offer": "11", "deg_grant": "1", "locale": "11", "close_date": "-2", "merge_id": "104151", "alias": "NOT AVAILABLE", "size_set": "17", "inst_size": "-2", "pt_enroll": "-999", "ft_enroll": "-999", "tot_enroll": "-999", "housing": "-1", "dorm_cap": "-999", "tot_emp": "-999", "shelter_id": "NOT AVAILABLE" }, "geometry": { "type": "Point", "coordinates": [ -12475973.968298697844148, 3955564.978092139586806 ] } },
{ "type": "Feature", "properties": { "fid": 23, "objectid": "2720", "ipedsid": "111391", "name": "CALIFORNIA WESTERN SCHOOL OF LAW", "address": "225 CEDAR ST", "city": "SAN DIEGO", "state": "CA", "zip": "92101", "zip4": "3046", "telephone": "(619) 239-0391", "type": "2", "status": "A", "population": "999", "county": "SAN DIEGO", "countyfips": "06073", "country": "USA", "latitude": "32.72171089200003", "longitude": "-117.16259182099998", "naics_code": "611310", "naics_desc": "COLLEGES, UNIVERSITIES, AND PROFESSIONAL SCHOOLS", "source": "https://nces.ed.gov/collegenavigator/?id=111391", "sourcedate": "2009-10-13T02:00:00", "val_method": "IMAGERY/OTHER", "val_date": "2019-01-24T01:00:00", "website": "https://www.cwsl.edu/", "stfips": "06", "cofips": "073", "sector": "2", "level": "1", "hi_offer": "13", "deg_grant": "1", "locale": "11", "close_date": "-2", "merge_id": "-2", "alias": "NOT AVAILABLE", "size_set": "31", "inst_size": "1", "pt_enroll": "261", "ft_enroll": "535", "tot_enroll": "796", "housing": "2", "dorm_cap": "-999", "tot_emp": "203", "shelter_id": "NOT AVAILABLE" }, "geometry": { "type": "Point", "coordinates": [ -13042480.061533875763416, 3858423.727430800907314 ] } },
{ "type": "Feature", "properties": { "fid": 24, "objectid": "3641", "ipedsid": "459994", "name": "STRAYER UNIVERSITY-GLOBAL REGION", "address": "1133 15TH ST NW, SUITE 200", "city": "WASHINGTON", "state": "DC", "zip": "20005", "zip4": "NOT AVAILABLE", "telephone": "(877) 445-7180", "type": "3", "status": "A", "population": "10457", "county": "DISTRICT OF COLUMBIA", "countyfips": "11001", "country": "USA", "latitude": "38.90488089000007", "longitude": "-77.03413336399996", "naics_code": "611310", "naics_desc": "COLLEGES, UNIVERSITIES, AND PROFESSIONAL SCHOOLS", "source": "https://nces.ed.gov/collegenavigator/?id=459994", "sourcedate": "2013-06-25T02:00:00", "val_method": "IMAGERY/OTHER", "val_date": "2016-05-26T02:00:00", "website": "www.strayer.edu/", "stfips": "11", "cofips": "001", "sector": "3", "level": "1", "hi_offer": "20", "deg_grant": "1", "locale": "11", "close_date": "-2", "merge_id": "-2", "alias": "NOT AVAILABLE", "size_set": "29", "inst_size": "4", "pt_enroll": "9627", "ft_enroll": "830", "tot_enroll": "10457", "housing": "2", "dorm_cap": "-999", "tot_emp": "-999", "shelter_id": "NOT AVAILABLE" }, "geometry": { "type": "Point", "coordinates": [ -8575400.499781601130962, 4708055.720204247161746 ] } },
{ "type": "Feature", "properties": { "fid": 25, "objectid": "343", "ipedsid": "194310", "name": "PACE UNIVERSITY", "address": "1 PACE PLAZA", "city": "NEW YORK", "state": "NY", "zip": "10038", "zip4": "1598", "telephone": "(212) 346-1200", "type": "2", "status": "A", "population": "16030", "county": "NEW YORK", "countyfips": "36061", "country": "USA", "latitude": "40.71170978200007", "longitude": "-74.00487380799996", "naics_code": "611310", "naics_desc": "COLLEGES, UNIVERSITIES, AND PROFESSIONAL SCHOOLS", "source": "https://nces.ed.gov/collegenavigator/?id=194310", "sourcedate": "2009-10-13T02:00:00", "val_method": "IMAGERY/OTHER", "val_date": "2016-07-07T02:00:00", "website": "www.pace.edu/", "stfips": "36", "cofips": "061", "sector": "2", "level": "2", "hi_offer": "11", "deg_grant": "1", "locale": "11", "close_date": "-2", "merge_id": "-2", "alias": "PACE UNIVERSITY", "size_set": "17", "inst_size": "4", "pt_enroll": "2970", "ft_enroll": "9865", "tot_enroll": "12835", "housing": "1", "dorm_cap": "3780", "tot_emp": "3195", "shelter_id": "NOT AVAILABLE" }, "geometry": { "type": "Point", "coordinates": [ -8238184.868527023121715, 4969911.469197381287813 ] } },
{ "type": "Feature", "properties": { "fid": 26, "objectid": "1081", "ipedsid": "142832", "name": "ADLER UNIVERSITY", "address": "17 NORTH DEARBORN STREET", "city": "CHICAGO", "state": "IL", "zip": "60602", "zip4": "NOT AVAILABLE", "telephone": "(312) 662-4000", "type": "2", "status": "A", "population": "1944", "county": "COOK", "countyfips": "17031", "country": "USA", "latitude": "41.88662800000003", "longitude": "-87.62565499999994", "naics_code": "611310", "naics_desc": "COLLEGES, UNIVERSITIES, AND PROFESSIONAL SCHOOLS", "source": "https://nces.ed.gov/collegenavigator/?id=142832", "sourcedate": "2009-12-31T01:00:00", "val_method": "IMAGERY", "val_date": "2016-07-26T02:00:00", "website": "www.adler.edu/", "stfips": "17", "cofips": "031", "sector": "2", "level": "1", "hi_offer": "11", "deg_grant": "1", "locale": "11", "close_date": "-2", "merge_id": "-2", "alias": "NOT AVAILABLE", "size_set": "26", "inst_size": "2", "pt_enroll": "588", "ft_enroll": "1138", "tot_enroll": "1726", "housing": "2", "dorm_cap": "-999", "tot_emp": "218", "shelter_id": "NOT AVAILABLE" }, "geometry": { "type": "Point", "coordinates": [ -9754443.295027058571577, 5144011.967713804915547 ] } },
{ "type": "Feature", "properties": { "fid": 27, "objectid": "2653", "ipedsid": "203067", "name": "HEBREW UNION COLLEGE-JEWISH INSTITUTE OF RELIGION", "address": "ONE W 4TH ST", "city": "NEW YORK", "state": "NY", "zip": "10012", "zip4": "1186", "telephone": "(212) 674-5300", "type": "2", "status": "A", "population": "659", "county": "NEW YORK", "countyfips": "36061", "country": "USA", "latitude": "40.72893810900007", "longitude": "-73.99449860099998", "naics_code": "611310", "naics_desc": "COLLEGES, UNIVERSITIES, AND PROFESSIONAL SCHOOLS", "source": "https://nces.ed.gov/collegenavigator/?id=203067", "sourcedate": "2009-10-13T02:00:00", "val_method": "IMAGERY/OTHER", "val_date": "2016-07-01T02:00:00", "website": "www.huc.edu/", "stfips": "36", "cofips": "061", "sector": "2", "level": "2", "hi_offer": "11", "deg_grant": "1", "locale": "11", "close_date": "-2", "merge_id": "-2", "alias": "HUC-JIR", "size_set": "24", "inst_size": "1", "pt_enroll": "62", "ft_enroll": "273", "tot_enroll": "335", "housing": "2", "dorm_cap": "-999", "tot_emp": "324", "shelter_id": "NOT AVAILABLE" }, "geometry": { "type": "Point", "coordinates": [ -8237029.905766911804676, 4972441.936376864090562 ] } },
{ "type": "Feature", "properties": { "fid": 28, "objectid": "4189", "ipedsid": "234915", "name": "CITY UNIVERSITY OF SEATTLE", "address": "521 WALL STREET, SUITE 100", "city": "SEATTLE", "state": "WA", "zip": "98121", "zip4": "NOT AVAILABLE", "telephone": "(888) 422-4898", "type": "2", "status": "A", "population": "2545", "county": "KING", "countyfips": "53033", "country": "USA", "latitude": "47.61742700000008", "longitude": "-122.34454499999998", "naics_code": "611310", "naics_desc": "COLLEGES, UNIVERSITIES, AND PROFESSIONAL SCHOOLS", "source": "https://nces.ed.gov/collegenavigator/?id=234915", "sourcedate": "2009-10-13T02:00:00", "val_method": "IMAGERY/OTHER", "val_date": "2019-01-29T01:00:00", "website": "www.cityu.edu/", "stfips": "53", "cofips": "033", "sector": "2", "level": "3", "hi_offer": "12", "deg_grant": "1", "locale": "11", "close_date": "-2", "merge_id": "-2", "alias": "CITYU", "size_set": "18", "inst_size": "2", "pt_enroll": "1784", "ft_enroll": "268", "tot_enroll": "2052", "housing": "1", "dorm_cap": "104", "tot_emp": "493", "shelter_id": "NOT AVAILABLE" }, "geometry": { "type": "Point", "coordinates": [ -13619332.450734741985798, 6043442.683338685892522 ] } },
{ "type": "Feature", "properties": { "fid": 29, "objectid": "31", "ipedsid": "134811", "name": "AI MIAMI INTERNATIONAL UNIVERSITY OF ART AND DESIGN", "address": "1501 BISCAYNE BOULEVARD, SUITE 100", "city": "MIAMI", "state": "FL", "zip": "33132", "zip4": "1418", "telephone": "(305) 428-5700", "type": "3", "status": "A", "population": "1074", "county": "MIAMI-DADE", "countyfips": "12086", "country": "USA", "latitude": "25.79000764500006", "longitude": "-80.18839024699997", "naics_code": "611310", "naics_desc": "COLLEGES, UNIVERSITIES, AND PROFESSIONAL SCHOOLS", "source": "https://nces.ed.gov/collegenavigator/?id=134811", "sourcedate": "2009-10-13T02:00:00", "val_method": "IMAGERY/OTHER", "val_date": "2016-06-08T02:00:00", "website": "www.artinstitutes.edu/miami/", "stfips": "12", "cofips": "086", "sector": "3", "level": "2", "hi_offer": "20", "deg_grant": "1", "locale": "11", "close_date": "-2", "merge_id": "-2", "alias": "NOT AVAILABLE", "size_set": "30", "inst_size": "1", "pt_enroll": "310", "ft_enroll": "624", "tot_enroll": "934", "housing": "2", "dorm_cap": "-999", "tot_emp": "140", "shelter_id": "NOT AVAILABLE" }, "geometry": { "type": "Point", "coordinates": [ -8926530.769828341901302, 2973095.65140667418018 ] } },
{ "type": "Feature", "properties": { "fid": 30, "objectid": "415", "ipedsid": "459745", "name": "THE CHICAGO SCHOOL OF PROFESSIONAL PSYCHOLOGY AT WASHINGTON DC", "address": "901 15TH ST., NW", "city": "WASHINGTON", "state": "DC", "zip": "20005", "zip4": "NOT AVAILABLE", "telephone": "(202) 706-5000", "type": "2", "status": "A", "population": "812", "county": "DISTRICT OF COLUMBIA", "countyfips": "11001", "country": "USA", "latitude": "38.901666284000044", "longitude": "-77.03326189999996", "naics_code": "611310", "naics_desc": "COLLEGES, UNIVERSITIES, AND PROFESSIONAL SCHOOLS", "source": "https://nces.ed.gov/collegenavigator/?id=459745", "sourcedate": "2013-06-25T02:00:00", "val_method": "IMAGERY/OTHER", "val_date": "2016-05-26T02:00:00", "website": "https://www.thechicagoschool.edu/washington-dc/", "stfips": "11", "cofips": "001", "sector": "2", "level": "2", "hi_offer": "11", "deg_grant": "1", "locale": "11", "close_date": "-2", "merge_id": "-2", "alias": "NOT AVAILABLE", "size_set": "26", "inst_size": "1", "pt_enroll": "291", "ft_enroll": "475", "tot_enroll": "766", "housing": "2", "dorm_cap": "-999", "tot_emp": "46", "shelter_id": "NOT AVAILABLE" }, "geometry": { "type": "Point", "coordinates": [ -8575303.488852877169847, 4707595.883451826870441 ] } },
{ "type": "Feature", "properties": { "fid": 31, "objectid": "5649", "ipedsid": "454184", "name": "THE KING'S COLLEGE", "address": "56 BROADWAY", "city": "NEW YORK", "state": "NY", "zip": "10004", "zip4": "NOT AVAILABLE", "telephone": "(212) 659-7200", "type": "2", "status": "A", "population": "514", "county": "NEW YORK", "countyfips": "36061", "country": "USA", "latitude": "40.70655800000003", "longitude": "-74.01229599999994", "naics_code": "611310", "naics_desc": "COLLEGES, UNIVERSITIES, AND PROFESSIONAL SCHOOLS", "source": "https://nces.ed.gov/collegenavigator/?id=454184", "sourcedate": "2009-10-13T02:00:00", "val_method": "IMAGERY/OTHER", "val_date": "2019-01-31T01:00:00", "website": "www.tkc.edu/", "stfips": "36", "cofips": "061", "sector": "2", "level": "1", "hi_offer": "30", "deg_grant": "1", "locale": "11", "close_date": "-2", "merge_id": "-2", "alias": "NOT AVAILABLE", "size_set": "21", "inst_size": "1", "pt_enroll": "26", "ft_enroll": "416", "tot_enroll": "442", "housing": "1", "dorm_cap": "275", "tot_emp": "72", "shelter_id": "NOT AVAILABLE" }, "geometry": { "type": "Point", "coordinates": [ -8239011.103161030448973, 4969154.911451033316553 ] } },
{ "type": "Feature", "properties": { "fid": 32, "objectid": "5643", "ipedsid": "384412", "name": "UNIVERSITY OF THE POTOMAC-WASHINGTON DC CAMPUS", "address": "1401 H STREET NW", "city": "WASHINGTON", "state": "DC", "zip": "20005", "zip4": "NOT AVAILABLE", "telephone": "(202) 274-2300", "type": "3", "status": "A", "population": "268", "county": "DISTRICT OF COLUMBIA", "countyfips": "11001", "country": "USA", "latitude": "38.900479877000066", "longitude": "-77.03244202499997", "naics_code": "611310", "naics_desc": "COLLEGES, UNIVERSITIES, AND PROFESSIONAL SCHOOLS", "source": "https://nces.ed.gov/collegenavigator/?id=384412", "sourcedate": "2009-10-13T02:00:00", "val_method": "IMAGERY/OTHER", "val_date": "2015-10-28T01:00:00", "website": "www.potomac.edu/", "stfips": "11", "cofips": "001", "sector": "3", "level": "1", "hi_offer": "13", "deg_grant": "1", "locale": "11", "close_date": "-2", "merge_id": "-2", "alias": "NOT AVAILABLE", "size_set": "29", "inst_size": "1", "pt_enroll": "-999", "ft_enroll": "232", "tot_enroll": "232", "housing": "2", "dorm_cap": "-999", "tot_emp": "36", "shelter_id": "NOT AVAILABLE" }, "geometry": { "type": "Point", "coordinates": [ -8575212.220785364508629, 4707426.177853655070066 ] } },
{ "type": "Feature", "properties": { "fid": 33, "objectid": "1284", "ipedsid": "179812", "name": "KANSAS CITY UNIVERSITY OF MEDICINE AND BIOSCIENCES", "address": "1750 INDEPENDENCE AVE", "city": "KANSAS CITY", "state": "MO", "zip": "64106", "zip4": "1453", "telephone": "(816) 654-7000", "type": "2", "status": "A", "population": "1742", "county": "JACKSON", "countyfips": "29095", "country": "USA", "latitude": "39.10755273400008", "longitude": "-94.56137438799999", "naics_code": "611310", "naics_desc": "COLLEGES, UNIVERSITIES, AND PROFESSIONAL SCHOOLS", "source": "https://nces.ed.gov/collegenavigator/?id=179812", "sourcedate": "2009-10-13T02:00:00", "val_method": "IMAGERY", "val_date": "2016-06-10T02:00:00", "website": "www.kcumb.edu/", "stfips": "29", "cofips": "095", "sector": "2", "level": "1", "hi_offer": "13", "deg_grant": "1", "locale": "11", "close_date": "-2", "merge_id": "-2", "alias": "KCU - KANSAS CITY", "size_set": "25", "inst_size": "2", "pt_enroll": "2", "ft_enroll": "1273", "tot_enroll": "1275", "housing": "2", "dorm_cap": "-999", "tot_emp": "467", "shelter_id": "NOT AVAILABLE" }, "geometry": { "type": "Point", "coordinates": [ -10526524.045584261417389, 4737089.309053630568087 ] } },
{ "type": "Feature", "properties": { "fid": 34, "objectid": "273", "ipedsid": "457697", "name": "CITY VISION UNIVERSITY", "address": "1100 E 11TH STREET", "city": "KANSAS CITY", "state": "MO", "zip": "64106", "zip4": "3028", "telephone": "(816) 960-2008", "type": "2", "status": "A", "population": "168", "county": "JACKSON", "countyfips": "29095", "country": "USA", "latitude": "39.070952583000064", "longitude": "-94.57614247899994", "naics_code": "611310", "naics_desc": "COLLEGES, UNIVERSITIES, AND PROFESSIONAL SCHOOLS", "source": "https://nces.ed.gov/collegenavigator/?id=457697", "sourcedate": "2013-06-25T02:00:00", "val_method": "GEOCODE", "val_date": "2016-05-23T02:00:00", "website": "https://www.cityvision.edu/", "stfips": "29", "cofips": "095", "sector": "2", "level": "3", "hi_offer": "20", "deg_grant": "1", "locale": "11", "close_date": "-2", "merge_id": "-2", "alias": "TECHMISSION, INC", "size_set": "22", "inst_size": "1", "pt_enroll": "102", "ft_enroll": "25", "tot_enroll": "127", "housing": "2", "dorm_cap": "-999", "tot_emp": "41", "shelter_id": "NOT AVAILABLE" }, "geometry": { "type": "Point", "coordinates": [ -10528168.021954363211989, 4731840.02321547921747 ] } },
{ "type": "Feature", "properties": { "fid": 35, "objectid": "6125", "ipedsid": "148982", "name": "SPERTUS COLLEGE", "address": "610 S MICHIGAN AVE", "city": "CHICAGO", "state": "IL", "zip": "60605", "zip4": "NOT AVAILABLE", "telephone": "(312) 922-9012", "type": "2", "status": "A", "population": "178", "county": "COOK", "countyfips": "17031", "country": "USA", "latitude": "41.874026842000035", "longitude": "-87.62461886499995", "naics_code": "611310", "naics_desc": "COLLEGES, UNIVERSITIES, AND PROFESSIONAL SCHOOLS", "source": "https://nces.ed.gov/collegenavigator/?id=148982", "sourcedate": "2009-10-13T02:00:00", "val_method": "IMAGERY/OTHER", "val_date": "2016-06-24T02:00:00", "website": "www.spertus.edu/", "stfips": "17", "cofips": "031", "sector": "2", "level": "2", "hi_offer": "12", "deg_grant": "1", "locale": "11", "close_date": "-2", "merge_id": "-2", "alias": "SPERTUS INSTITUTE OF JEWISH STUDIES SPERTUS INSTITUTE FOR JEWISH LEARNING AND LEADERSHIP", "size_set": "32", "inst_size": "1", "pt_enroll": "93", "ft_enroll": "24", "tot_enroll": "117", "housing": "2", "dorm_cap": "-999", "tot_emp": "61", "shelter_id": "NOT AVAILABLE" }, "geometry": { "type": "Point", "coordinates": [ -9754327.953006466850638, 5142127.914492382667959 ] } },
{ "type": "Feature", "properties": { "fid": 36, "objectid": "6286", "ipedsid": "491190", "name": "THE CHICAGO SCHOOL OF PROFESSIONAL PSYCHOLOGY AT SAN DIEGO", "address": "401 W. A STREET AT 1 COLUMBIA PLACE", "city": "SAN DIEGO", "state": "CA", "zip": "92101", "zip4": "7903", "telephone": "(619) 541-4500", "type": "2", "status": "A", "population": "123", "county": "SAN DIEGO", "countyfips": "06073", "country": "USA", "latitude": "32.71831750000007", "longitude": "-117.16706662499996", "naics_code": "611310", "naics_desc": "COLLEGES, UNIVERSITIES, AND PROFESSIONAL SCHOOLS", "source": "https://nces.ed.gov/collegenavigator/?id=491190", "sourcedate": "2018-11-06T01:00:00", "val_method": "IMAGERY/OTHER", "val_date": "2018-11-15T01:00:00", "website": "https://www.thechicagoschool.edu/san-diego/", "stfips": "06", "cofips": "073", "sector": "2", "level": "1", "hi_offer": "13", "deg_grant": "1", "locale": "11", "close_date": "-2", "merge_id": "-2", "alias": "NOT AVAILABLE", "size_set": "-2", "inst_size": "1", "pt_enroll": "35", "ft_enroll": "81", "tot_enroll": "116", "housing": "2", "dorm_cap": "-999", "tot_emp": "7", "shelter_id": "NOT AVAILABLE" }, "geometry": { "type": "Point", "coordinates": [ -13042978.194436553865671, 3857974.730896980967373 ] } },
{ "type": "Feature", "properties": { "fid": 37, "objectid": "4270", "ipedsid": "140340", "name": "HERZING UNIVERSITY-ATLANTA", "address": "50 HURT PLAZA SE STE. 400", "city": "ATLANTA", "state": "GA", "zip": "30303", "zip4": "NOT AVAILABLE", "telephone": "(404) 816-4533 EXT 116", "type": "2", "status": "A", "population": "789", "county": "FULTON", "countyfips": "13121", "country": "USA", "latitude": "33.754187616000024", "longitude": "-84.38741932099998", "naics_code": "611310", "naics_desc": "COLLEGES, UNIVERSITIES, AND PROFESSIONAL SCHOOLS", "source": "https://nces.ed.gov/collegenavigator/?id=140340", "sourcedate": "2009-10-13T02:00:00", "val_method": "IMAGERY/OTHER", "val_date": "2019-01-25T01:00:00", "website": "https://www.herzing.edu/", "stfips": "13", "cofips": "121", "sector": "2", "level": "3", "hi_offer": "20", "deg_grant": "1", "locale": "11", "close_date": "-2", "merge_id": "-2", "alias": "NOT AVAILABLE", "size_set": "22", "inst_size": "1", "pt_enroll": "279", "ft_enroll": "453", "tot_enroll": "732", "housing": "2", "dorm_cap": "-999", "tot_emp": "57", "shelter_id": "NOT AVAILABLE" }, "geometry": { "type": "Point", "coordinates": [ -9393964.548172175884247, 3995842.993125751148909 ] } },
{ "type": "Feature", "properties": { "fid": 38, "objectid": "2429", "ipedsid": "119775", "name": "NEWSCHOOL OF ARCHITECTURE AND DESIGN", "address": "1249 F ST", "city": "SAN DIEGO", "state": "CA", "zip": "92101", "zip4": "NOT AVAILABLE", "telephone": "(800) 490-7081", "type": "3", "status": "A", "population": "589", "county": "SAN DIEGO", "countyfips": "06073", "country": "USA", "latitude": "32.71330966900007", "longitude": "-117.15330540599996", "naics_code": "611310", "naics_desc": "COLLEGES, UNIVERSITIES, AND PROFESSIONAL SCHOOLS", "source": "https://nces.ed.gov/collegenavigator/?id=119775", "sourcedate": "2009-10-13T02:00:00", "val_method": "IMAGERY", "val_date": "2016-07-18T02:00:00", "website": "www.newschoolarch.edu/", "stfips": "06", "cofips": "073", "sector": "3", "level": "1", "hi_offer": "20", "deg_grant": "1", "locale": "11", "close_date": "-2", "merge_id": "-2", "alias": "NOT AVAILABLE", "size_set": "30", "inst_size": "1", "pt_enroll": "52", "ft_enroll": "403", "tot_enroll": "455", "housing": "2", "dorm_cap": "-999", "tot_emp": "134", "shelter_id": "NOT AVAILABLE" }, "geometry": { "type": "Point", "coordinates": [ -13041446.30254478007555, 3857312.151135746389627 ] } },
{ "type": "Feature", "properties": { "fid": 39, "objectid": "6089", "ipedsid": "199582", "name": "SAINT AUGUSTINE'S UNIVERSITY", "address": "1315 OAKWOOD AVENUE", "city": "RALEIGH", "state": "NC", "zip": "27610", "zip4": "2298", "telephone": "(919) 516-4000", "type": "2", "status": "A", "population": "1405", "county": "WAKE", "countyfips": "37183", "country": "USA", "latitude": "35.78503190500004", "longitude": "-78.62180578499994", "naics_code": "611310", "naics_desc": "COLLEGES, UNIVERSITIES, AND PROFESSIONAL SCHOOLS", "source": "https://nces.ed.gov/collegenavigator/?id=199582", "sourcedate": "2009-10-13T02:00:00", "val_method": "IMAGERY/OTHER", "val_date": "2016-06-29T02:00:00", "website": "www.st-aug.edu/", "stfips": "37", "cofips": "183", "sector": "2", "level": "1", "hi_offer": "30", "deg_grant": "1", "locale": "11", "close_date": "-2", "merge_id": "-2", "alias": "NOT AVAILABLE", "size_set": "22", "inst_size": "2", "pt_enroll": "188", "ft_enroll": "922", "tot_enroll": "1110", "housing": "1", "dorm_cap": "1026", "tot_emp": "295", "shelter_id": "NOT AVAILABLE" }, "geometry": { "type": "Point", "coordinates": [ -8752139.385233843699098, 4271082.266720538027585 ] } },
{ "type": "Feature", "properties": { "fid": 40, "objectid": "1230", "ipedsid": "151111", "name": "INDIANA UNIVERSITY-PURDUE UNIVERSITY-INDIANAPOLIS", "address": "420 UNIVERSITY BLVD", "city": "INDIANAPOLIS", "state": "IN", "zip": "46202", "zip4": "5143", "telephone": "(317) 274-5555", "type": "1", "status": "A", "population": "38885", "county": "MARION", "countyfips": "18097", "country": "USA", "latitude": "39.77294751100004", "longitude": "-86.17221718699994", "naics_code": "611310", "naics_desc": "COLLEGES, UNIVERSITIES, AND PROFESSIONAL SCHOOLS", "source": "https://nces.ed.gov/collegenavigator/?id=151111", "sourcedate": "2009-10-13T02:00:00", "val_method": "IMAGERY", "val_date": "2016-08-08T02:00:00", "website": "www.iupui.edu/", "stfips": "18", "cofips": "097", "sector": "1", "level": "1", "hi_offer": "11", "deg_grant": "1", "locale": "11", "close_date": "-2", "merge_id": "-2", "alias": "IUPUI", "size_set": "16", "inst_size": "5", "pt_enroll": "7133", "ft_enroll": "22257", "tot_enroll": "29390", "housing": "1", "dorm_cap": "2332", "tot_emp": "9495", "shelter_id": "NOT AVAILABLE" }, "geometry": { "type": "Point", "coordinates": [ -9592647.337784210219979, 4833002.280104416422546 ] } },
{ "type": "Feature", "properties": { "fid": 41, "objectid": "1737", "ipedsid": "157818", "name": "TRANSYLVANIA UNIVERSITY", "address": "300 N BROADWAY", "city": "LEXINGTON", "state": "KY", "zip": "40508", "zip4": "1797", "telephone": "(859) 233-8300", "type": "2", "status": "A", "population": "1275", "county": "FAYETTE", "countyfips": "21067", "country": "USA", "latitude": "38.05298250100003", "longitude": "-84.49320185799996", "naics_code": "611310", "naics_desc": "COLLEGES, UNIVERSITIES, AND PROFESSIONAL SCHOOLS", "source": "https://nces.ed.gov/collegenavigator/?id=157818", "sourcedate": "2009-12-10T01:00:00", "val_method": "IMAGERY/OTHER", "val_date": "2015-11-18T01:00:00", "website": "https://www.transy.edu/", "stfips": "21", "cofips": "067", "sector": "2", "level": "2", "hi_offer": "30", "deg_grant": "1", "locale": "11", "close_date": "-2", "merge_id": "-2", "alias": "NOT AVAILABLE", "size_set": "21", "inst_size": "1", "pt_enroll": "5", "ft_enroll": "958", "tot_enroll": "963", "housing": "1", "dorm_cap": "768", "tot_emp": "312", "shelter_id": "NOT AVAILABLE" }, "geometry": { "type": "Point", "coordinates": [ -9405740.206325832754374, 4586913.169395580887794 ] } },
{ "type": "Feature", "properties": { "fid": 42, "objectid": "5714", "ipedsid": "144281", "name": "COLUMBIA COLLEGE CHICAGO", "address": "600 SOUTH MICHIGAN", "city": "CHICAGO", "state": "IL", "zip": "60605", "zip4": "1996", "telephone": "(312) 369-1000", "type": "2", "status": "A", "population": "8166", "county": "COOK", "countyfips": "17031", "country": "USA", "latitude": "41.874209896000025", "longitude": "-87.62537191399997", "naics_code": "611310", "naics_desc": "COLLEGES, UNIVERSITIES, AND PROFESSIONAL SCHOOLS", "source": "https://nces.ed.gov/collegenavigator/?id=144281", "sourcedate": "2009-10-13T02:00:00", "val_method": "IMAGERY/OTHER", "val_date": "2020-01-29T01:00:00", "website": "www.colum.edu/", "stfips": "17", "cofips": "031", "sector": "2", "level": "1", "hi_offer": "20", "deg_grant": "1", "locale": "11", "close_date": "-2", "merge_id": "-2", "alias": "NOT AVAILABLE", "size_set": "19", "inst_size": "3", "pt_enroll": "467", "ft_enroll": "6302", "tot_enroll": "6769", "housing": "1", "dorm_cap": "2408", "tot_emp": "1397", "shelter_id": "NOT AVAILABLE" }, "geometry": { "type": "Point", "coordinates": [ -9754411.782037692144513, 5142155.281022571027279 ] } },
{ "type": "Feature", "properties": { "fid": 43, "objectid": "6202", "ipedsid": "141644", "name": "HAWAII PACIFIC UNIVERSITY", "address": "1 ALOHA TOWER DRIVE", "city": "HONOLULU", "state": "HI", "zip": "96813", "zip4": "NOT AVAILABLE", "telephone": "(808) 544-0200", "type": "2", "status": "A", "population": "4842", "county": "HONOLULU", "countyfips": "15003", "country": "USA", "latitude": "21.31031297100003", "longitude": "-157.85977543799996", "naics_code": "611310", "naics_desc": "COLLEGES, UNIVERSITIES, AND PROFESSIONAL SCHOOLS", "source": "https://nces.ed.gov/collegenavigator/?id=141644", "sourcedate": "2009-12-10T01:00:00", "val_method": "IMAGERY/OTHER", "val_date": "2019-01-25T01:00:00", "website": "https://www.hpu.edu/", "stfips": "15", "cofips": "003", "sector": "2", "level": "3", "hi_offer": "13", "deg_grant": "1", "locale": "11", "close_date": "-2", "merge_id": "-2", "alias": "NOT AVAILABLE", "size_set": "18", "inst_size": "2", "pt_enroll": "1778", "ft_enroll": "2465", "tot_enroll": "4243", "housing": "1", "dorm_cap": "549", "tot_emp": "599", "shelter_id": "NOT AVAILABLE" }, "geometry": { "type": "Point", "coordinates": [ -17572869.81849867105484, 2428918.791967120487243 ] } },
{ "type": "Feature", "properties": { "fid": 44, "objectid": "2145", "ipedsid": "202806", "name": "FRANKLIN UNIVERSITY", "address": "201 S GRANT AVE", "city": "COLUMBUS", "state": "OH", "zip": "43215", "zip4": "5399", "telephone": "(614) 797-4700", "type": "2", "status": "A", "population": "7272", "county": "FRANKLIN", "countyfips": "39049", "country": "USA", "latitude": "39.95814461100008", "longitude": "-82.99133908999994", "naics_code": "611310", "naics_desc": "COLLEGES, UNIVERSITIES, AND PROFESSIONAL SCHOOLS", "source": "https://nces.ed.gov/collegenavigator/?id=202806", "sourcedate": "2009-12-10T01:00:00", "val_method": "IMAGERY", "val_date": "2016-08-16T02:00:00", "website": "www.franklin.edu/", "stfips": "39", "cofips": "049", "sector": "2", "level": "3", "hi_offer": "12", "deg_grant": "1", "locale": "11", "close_date": "-2", "merge_id": "-2", "alias": "NOT AVAILABLE", "size_set": "29", "inst_size": "3", "pt_enroll": "3549", "ft_enroll": "2377", "tot_enroll": "5926", "housing": "2", "dorm_cap": "-999", "tot_emp": "1346", "shelter_id": "NOT AVAILABLE" }, "geometry": { "type": "Point", "coordinates": [ -9238553.607750693336129, 4859861.831289350055158 ] } },
{ "type": "Feature", "properties": { "fid": 45, "objectid": "4328", "ipedsid": "455664", "name": "THE CHICAGO SCHOOL OF PROFESSIONAL PSYCHOLOGY AT LOS ANGELES", "address": "707 WILSHIRE BOULEVARD", "city": "LOS ANGELES", "state": "CA", "zip": "90017", "zip4": "NOT AVAILABLE", "telephone": "(213) 627-7200", "type": "2", "status": "A", "population": "3186", "county": "LOS ANGELES", "countyfips": "06037", "country": "USA", "latitude": "34.04798556500003", "longitude": "-118.25720875899998", "naics_code": "611310", "naics_desc": "COLLEGES, UNIVERSITIES, AND PROFESSIONAL SCHOOLS", "source": "https://nces.ed.gov/collegenavigator/?id=455664", "sourcedate": "2011-06-02T02:00:00", "val_method": "IMAGERY/OTHER", "val_date": "2022-05-25T02:00:00", "website": "https://www.thechicagoschool.edu/los-angeles/", "stfips": "06", "cofips": "037", "sector": "2", "level": "1", "hi_offer": "11", "deg_grant": "1", "locale": "13", "close_date": "-2", "merge_id": "-2", "alias": "NOT AVAILABLE", "size_set": "26", "inst_size": "2", "pt_enroll": "2600", "ft_enroll": "531", "tot_enroll": "3131", "housing": "2", "dorm_cap": "-999", "tot_emp": "55", "shelter_id": "NOT AVAILABLE" }, "geometry": { "type": "Point", "coordinates": [ -13164332.261685729026794, 4035247.1364841517061 ] } },
{ "type": "Feature", "properties": { "fid": 46, "objectid": "3165", "ipedsid": "494551", "name": "GLASGOW CALEDONIAN NEW YORK COLLEGE", "address": "64 WOOSTER STREET", "city": "NEW YORK", "state": "NY", "zip": "10012", "zip4": "NOT AVAILABLE", "telephone": "(646) 768-5300", "type": "2", "status": "A", "population": "49", "county": "NEW YORK", "countyfips": "36061", "country": "USA", "latitude": "40.72334600000005", "longitude": "-74.00169899999997", "naics_code": "611310", "naics_desc": "COLLEGES, UNIVERSITIES, AND PROFESSIONAL SCHOOLS", "source": "https://nces.ed.gov/collegenavigator/?id=494551", "sourcedate": "2020-11-03T01:00:00", "val_method": "IMAGERY/OTHER", "val_date": "2020-11-03T01:00:00", "website": "www.gcnyc.com/", "stfips": "36", "cofips": "061", "sector": "2", "level": "2", "hi_offer": "20", "deg_grant": "1", "locale": "11", "close_date": "-2", "merge_id": "-2", "alias": "NOT AVAILABLE", "size_set": "-2", "inst_size": "1", "pt_enroll": "32", "ft_enroll": "-999", "tot_enroll": "32", "housing": "2", "dorm_cap": "-999", "tot_emp": "17", "shelter_id": "NOT AVAILABLE" }, "geometry": { "type": "Point", "coordinates": [ -8237831.450517099350691, 4971620.505184322595596 ] } },
{ "type": "Feature", "properties": { "fid": 47, "objectid": "931", "ipedsid": "484783", "name": "UNIVERSITY OF PHOENIX-PENNSYLVANIA", "address": "30 S 17TH ST", "city": "PHILADELPHIA", "state": "PA", "zip": "19103", "zip4": "NOT AVAILABLE", "telephone": "(866) 766-0766", "type": "3", "status": "M", "population": "9", "county": "PHILADELPHIA", "countyfips": "42101", "country": "USA", "latitude": "39.95227514700008", "longitude": "-75.16982921099998", "naics_code": "611310", "naics_desc": "COLLEGES, UNIVERSITIES, AND PROFESSIONAL SCHOOLS", "source": "https://nces.ed.gov/collegenavigator/?id=484783", "sourcedate": "2016-01-21T01:00:00", "val_method": "IMAGERY/OTHER", "val_date": "2016-01-22T01:00:00", "website": "https://www.phoenix.edu/", "stfips": "42", "cofips": "101", "sector": "3", "level": "1", "hi_offer": "30", "deg_grant": "1", "locale": "11", "close_date": "09/17/2020", "merge_id": "-2", "alias": "NOT AVAILABLE", "size_set": "22", "inst_size": "1", "pt_enroll": "-999", "ft_enroll": "9", "tot_enroll": "9", "housing": "2", "dorm_cap": "-999", "tot_emp": "-999", "shelter_id": "NOT AVAILABLE" }, "geometry": { "type": "Point", "coordinates": [ -8367867.110785857774317, 4859009.455634261481464 ] } },
{ "type": "Feature", "properties": { "fid": 48, "objectid": "1135", "ipedsid": "147536", "name": "NATIONAL LOUIS UNIVERSITY", "address": "122 S MICHIGAN AVE", "city": "CHICAGO", "state": "IL", "zip": "60603", "zip4": "NOT AVAILABLE", "telephone": "(800) 443-5522", "type": "2", "status": "A", "population": "8486", "county": "COOK", "countyfips": "17031", "country": "USA", "latitude": "41.88019671400008", "longitude": "-87.62491542899994", "naics_code": "611310", "naics_desc": "COLLEGES, UNIVERSITIES, AND PROFESSIONAL SCHOOLS", "source": "https://nces.ed.gov/collegenavigator/?id=147536", "sourcedate": "2009-10-13T02:00:00", "val_method": "IMAGERY/OTHER", "val_date": "2019-03-08T01:00:00", "website": "www.nl.edu/", "stfips": "17", "cofips": "031", "sector": "2", "level": "1", "hi_offer": "12", "deg_grant": "1", "locale": "11", "close_date": "-2", "merge_id": "-2", "alias": "NOT AVAILABLE", "size_set": "17", "inst_size": "3", "pt_enroll": "3174", "ft_enroll": "4228", "tot_enroll": "7402", "housing": "2", "dorm_cap": "-999", "tot_emp": "1084", "shelter_id": "NOT AVAILABLE" }, "geometry": { "type": "Point", "coordinates": [ -9754360.966359931975603, 5143050.352117332629859 ] } },
{ "type": "Feature", "properties": { "fid": 49, "objectid": "5186", "ipedsid": "181002", "name": "CREIGHTON UNIVERSITY", "address": "2500 CALIFORNIA PLAZA", "city": "OMAHA", "state": "NE", "zip": "68178", "zip4": "NOT AVAILABLE", "telephone": "(402) 280-2700", "type": "2", "status": "A", "population": "11004", "county": "DOUGLAS", "countyfips": "31055", "country": "USA", "latitude": "41.265354021000064", "longitude": "-95.94779994499999", "naics_code": "611310", "naics_desc": "COLLEGES, UNIVERSITIES, AND PROFESSIONAL SCHOOLS", "source": "https://nces.ed.gov/collegenavigator/?id=181002", "sourcedate": "2009-12-10T01:00:00", "val_method": "IMAGERY", "val_date": "2016-06-07T02:00:00", "website": "https://www.creighton.edu/", "stfips": "31", "cofips": "055", "sector": "2", "level": "2", "hi_offer": "11", "deg_grant": "1", "locale": "11", "close_date": "-2", "merge_id": "-2", "alias": "NOT AVAILABLE", "size_set": "18", "inst_size": "3", "pt_enroll": "1509", "ft_enroll": "7261", "tot_enroll": "8770", "housing": "1", "dorm_cap": "2513", "tot_emp": "2234", "shelter_id": "NOT AVAILABLE" }, "geometry": { "type": "Point", "coordinates": [ -10680860.232612278312445, 5051560.460832410492003 ] } },
{ "type": "Feature", "properties": { "fid": 50, "objectid": "6102", "ipedsid": "123952", "name": "SOUTHERN CALIFORNIA INSTITUTE OF ARCHITECTURE", "address": "960 E. 3RD STREET", "city": "LOS ANGELES", "state": "CA", "zip": "90013", "zip4": "1822", "telephone": "(213) 613-2200", "type": "2", "status": "A", "population": "627", "county": "LOS ANGELES", "countyfips": "06037", "country": "USA", "latitude": "34.046187717000066", "longitude": "-118.23303939999994", "naics_code": "611310", "naics_desc": "COLLEGES, UNIVERSITIES, AND PROFESSIONAL SCHOOLS", "source": "https://nces.ed.gov/collegenavigator/?id=123952", "sourcedate": "2009-10-13T02:00:00", "val_method": "IMAGERY/OTHER", "val_date": "2016-06-22T02:00:00", "website": "www.sciarc.edu/", "stfips": "06", "cofips": "037", "sector": "2", "level": "3", "hi_offer": "20", "deg_grant": "1", "locale": "11", "close_date": "-2", "merge_id": "-2", "alias": "SCI-ARC", "size_set": "30", "inst_size": "1", "pt_enroll": "2", "ft_enroll": "479", "tot_enroll": "481", "housing": "2", "dorm_cap": "-999", "tot_emp": "146", "shelter_id": "NOT AVAILABLE" }, "geometry": { "type": "Point", "coordinates": [ -13161641.740949045866728, 4035005.595449910964817 ] } },
{ "type": "Feature", "properties": { "fid": 51, "objectid": "6441", "ipedsid": "483586", "name": "CALIFORNIA INTERNATIONAL BUSINESS UNIVERSITY", "address": "550 WEST B STREET", "city": "SAN DIEGO", "state": "CA", "zip": "92101", "zip4": "NOT AVAILABLE", "telephone": "(619) 384-8596", "type": "2", "status": "A", "population": "49", "county": "SAN DIEGO", "countyfips": "06073", "country": "USA", "latitude": "32.71809030400004", "longitude": "-117.16807485399994", "naics_code": "611310", "naics_desc": "COLLEGES, UNIVERSITIES, AND PROFESSIONAL SCHOOLS", "source": "https://nces.ed.gov/GLOBALLOCATOR/col_info_popup.asp?ID=483586", "sourcedate": "2020-09-15T02:00:00", "val_method": "IMAGERY/OTHER", "val_date": "2021-05-12T02:00:00", "website": "www.cibu.edu", "stfips": "06", "cofips": "073", "sector": "2", "level": "1", "hi_offer": "9", "deg_grant": "1", "locale": "11", "close_date": "-2", "merge_id": "-2", "alias": "CIBU", "size_set": "-2", "inst_size": "1", "pt_enroll": "3", "ft_enroll": "31", "tot_enroll": "34", "housing": "2", "dorm_cap": "-999", "tot_emp": "15", "shelter_id": "NOT AVAILABLE" }, "geometry": { "type": "Point", "coordinates": [ -13043090.429975433275104, 3857944.670077065005898 ] } },
{ "type": "Feature", "properties": { "fid": 52, "objectid": "1107", "ipedsid": "145886", "name": "INSTITUTE FOR CLINICAL SOCIAL WORK", "address": "1345 W ARGYLE STREET", "city": "CHICAGO", "state": "IL", "zip": "60640", "zip4": "1229", "telephone": "(773) 943-6500", "type": "2", "status": "A", "population": "196", "county": "COOK", "countyfips": "17031", "country": "USA", "latitude": "41.87597836300006", "longitude": "-87.62740161999994", "naics_code": "611310", "naics_desc": "COLLEGES, UNIVERSITIES, AND PROFESSIONAL SCHOOLS", "source": "https://nces.ed.gov/collegenavigator/?id=145886", "sourcedate": "2009-10-13T02:00:00", "val_method": "IMAGERY/OTHER", "val_date": "2016-06-08T02:00:00", "website": "www.icsw.edu/", "stfips": "17", "cofips": "031", "sector": "2", "level": "1", "hi_offer": "12", "deg_grant": "1", "locale": "11", "close_date": "-2", "merge_id": "-2", "alias": "NOT AVAILABLE", "size_set": "26", "inst_size": "1", "pt_enroll": "4", "ft_enroll": "124", "tot_enroll": "128", "housing": "2", "dorm_cap": "-999", "tot_emp": "68", "shelter_id": "NOT AVAILABLE" }, "geometry": { "type": "Point", "coordinates": [ -9754637.727876069024205, 5142419.670461843721569 ] } },
{ "type": "Feature", "properties": { "fid": 53, "objectid": "4240", "ipedsid": "190114", "name": "METROPOLITAN COLLEGE OF NEW YORK", "address": "60 WEST STREET", "city": "NEW YORK", "state": "NY", "zip": "10006", "zip4": "1742", "telephone": "(800) 338-4465", "type": "2", "status": "A", "population": "1091", "county": "NEW YORK", "countyfips": "36061", "country": "USA", "latitude": "40.70859200000007", "longitude": "-74.01467699999995", "naics_code": "611310", "naics_desc": "COLLEGES, UNIVERSITIES, AND PROFESSIONAL SCHOOLS", "source": "https://nces.ed.gov/collegenavigator/?id=190114", "sourcedate": "2009-10-13T02:00:00", "val_method": "IMAGERY/OTHER", "val_date": "2019-01-28T01:00:00", "website": "https://www.mcny.edu/", "stfips": "36", "cofips": "061", "sector": "2", "level": "1", "hi_offer": "20", "deg_grant": "1", "locale": "11", "close_date": "-2", "merge_id": "-2", "alias": "MCNY", "size_set": "18", "inst_size": "1", "pt_enroll": "141", "ft_enroll": "715", "tot_enroll": "856", "housing": "2", "dorm_cap": "-999", "tot_emp": "235", "shelter_id": "NOT AVAILABLE" }, "geometry": { "type": "Point", "coordinates": [ -8239276.154868611134589, 4969453.604686172679067 ] } },
{ "type": "Feature", "properties": { "fid": 54, "objectid": "5584", "ipedsid": "143048", "name": "SCHOOL OF THE ART INSTITUTE OF CHICAGO", "address": "36 S WABASH", "city": "CHICAGO", "state": "IL", "zip": "60603", "zip4": "NOT AVAILABLE", "telephone": "(312) 629-6118", "type": "2", "status": "A", "population": "4179", "county": "COOK", "countyfips": "17031", "country": "USA", "latitude": "41.87964625200004", "longitude": "-87.62141094199995", "naics_code": "611310", "naics_desc": "COLLEGES, UNIVERSITIES, AND PROFESSIONAL SCHOOLS", "source": "https://nces.ed.gov/collegenavigator/?id=143048", "sourcedate": "2009-10-13T02:00:00", "val_method": "IMAGERY", "val_date": "2016-08-05T02:00:00", "website": "www.saic.edu/", "stfips": "17", "cofips": "031", "sector": "2", "level": "1", "hi_offer": "20", "deg_grant": "1", "locale": "11", "close_date": "-2", "merge_id": "-2", "alias": "NOT AVAILABLE", "size_set": "30", "inst_size": "2", "pt_enroll": "442", "ft_enroll": "2690", "tot_enroll": "3132", "housing": "1", "dorm_cap": "1057", "tot_emp": "1047", "shelter_id": "NOT AVAILABLE" }, "geometry": { "type": "Point", "coordinates": [ -9753970.848651602864265, 5142968.050704178400338 ] } },
{ "type": "Feature", "properties": { "fid": 55, "objectid": "6451", "ipedsid": "493512", "name": "SAN DIEGO GLOBAL KNOWLEDGE UNIVERSITY", "address": "1095 K STREET, SUITE B", "city": "SAN DIEGO", "state": "CA", "zip": "92101", "zip4": "7446", "telephone": "(619) 934-0797", "type": "3", "status": "N", "population": "93", "county": "SAN DIEGO", "countyfips": "06073", "country": "USA", "latitude": "32.70825683400005", "longitude": "-117.15517245999996", "naics_code": "611310", "naics_desc": "COLLEGES, UNIVERSITIES, AND PROFESSIONAL SCHOOLS", "source": "https://nces.ed.gov/GLOBALLOCATOR/col_info_popup.asp?ID=493512", "sourcedate": "2020-09-15T02:00:00", "val_method": "IMAGERY/OTHER", "val_date": "2021-05-12T02:00:00", "website": "www.sdgku.edu", "stfips": "06", "cofips": "073", "sector": "3", "level": "1", "hi_offer": "7", "deg_grant": "1", "locale": "11", "close_date": "-2", "merge_id": "-2", "alias": "NOT AVAILABLE", "size_set": "-2", "inst_size": "1", "pt_enroll": "-999", "ft_enroll": "80", "tot_enroll": "80", "housing": "2", "dorm_cap": "-999", "tot_emp": "13", "shelter_id": "NOT AVAILABLE" }, "geometry": { "type": "Point", "coordinates": [ -13041654.14204534329474, 3856643.654651809483767 ] } },
{ "type": "Feature", "properties": { "fid": 56, "objectid": "291", "ipedsid": "186399", "name": "RUTGERS UNIVERSITY-NEWARK", "address": "249 UNIVERSITY AVENUE, BLUMENTHAL HALL", "city": "NEWARK", "state": "NJ", "zip": "07102", "zip4": "NOT AVAILABLE", "telephone": "(973) 353-1766", "type": "1", "status": "A", "population": "15191", "county": "ESSEX", "countyfips": "34013", "country": "USA", "latitude": "40.74190246100005", "longitude": "-74.17492231799997", "naics_code": "611310", "naics_desc": "COLLEGES, UNIVERSITIES, AND PROFESSIONAL SCHOOLS", "source": "https://nces.ed.gov/collegenavigator/?id=186399", "sourcedate": "2009-10-13T02:00:00", "val_method": "IMAGERY", "val_date": "2016-07-07T02:00:00", "website": "https://www.newark.rutgers.edu/", "stfips": "34", "cofips": "013", "sector": "1", "level": "1", "hi_offer": "11", "deg_grant": "1", "locale": "11", "close_date": "-2", "merge_id": "-2", "alias": "RUTGERS UNIVERSITY-NEWARK; RUTGERS UNIVERSITY; NEWARK; RUTGERS; RU-NEWARK", "size_set": "16", "inst_size": "4", "pt_enroll": "3453", "ft_enroll": "9778", "tot_enroll": "13231", "housing": "1", "dorm_cap": "2444", "tot_emp": "1960", "shelter_id": "NOT AVAILABLE" }, "geometry": { "type": "Point", "coordinates": [ -8257114.582070380449295, 4974346.550216550938785 ] } },
{ "type": "Feature", "properties": { "fid": 57, "objectid": "414", "ipedsid": "108232", "name": "ACADEMY OF ART UNIVERSITY", "address": "79 NEW MONTGOMERY", "city": "SAN FRANCISCO", "state": "CA", "zip": "94105", "zip4": "NOT AVAILABLE", "telephone": "(800) 544-2787", "type": "3", "status": "A", "population": "10505", "county": "SAN FRANCISCO", "countyfips": "06075", "country": "USA", "latitude": "37.78774752900006", "longitude": "-122.40068563799997", "naics_code": "611310", "naics_desc": "COLLEGES, UNIVERSITIES, AND PROFESSIONAL SCHOOLS", "source": "https://nces.ed.gov/collegenavigator/?id=108232", "sourcedate": "2009-10-13T02:00:00", "val_method": "IMAGERY/OTHER", "val_date": "2016-07-14T02:00:00", "website": "www.academyart.edu/", "stfips": "06", "cofips": "075", "sector": "3", "level": "1", "hi_offer": "20", "deg_grant": "1", "locale": "11", "close_date": "-2", "merge_id": "-2", "alias": "NOT AVAILABLE", "size_set": "30", "inst_size": "3", "pt_enroll": "4668", "ft_enroll": "4260", "tot_enroll": "8928", "housing": "1", "dorm_cap": "1283", "tot_emp": "1577", "shelter_id": "NOT AVAILABLE" }, "geometry": { "type": "Point", "coordinates": [ -13625581.997969709336758, 4549484.89668133854866 ] } },
{ "type": "Feature", "properties": { "fid": 58, "objectid": "455", "ipedsid": "239318", "name": "MILWAUKEE SCHOOL OF ENGINEERING", "address": "1025 N BROADWAY", "city": "MILWAUKEE", "state": "WI", "zip": "53202", "zip4": "3109", "telephone": "(800) 332-6763", "type": "2", "status": "A", "population": "3196", "county": "MILWAUKEE", "countyfips": "55079", "country": "USA", "latitude": "43.04536436600006", "longitude": "-87.90769087799998", "naics_code": "611310", "naics_desc": "COLLEGES, UNIVERSITIES, AND PROFESSIONAL SCHOOLS", "source": "https://nces.ed.gov/collegenavigator/?id=239318", "sourcedate": "2009-12-10T01:00:00", "val_method": "IMAGERY/OTHER", "val_date": "2016-08-01T02:00:00", "website": "www.msoe.edu/", "stfips": "55", "cofips": "079", "sector": "2", "level": "2", "hi_offer": "20", "deg_grant": "1", "locale": "11", "close_date": "-2", "merge_id": "-2", "alias": "MSOE", "size_set": "20", "inst_size": "2", "pt_enroll": "211", "ft_enroll": "2462", "tot_enroll": "2673", "housing": "1", "dorm_cap": "1305", "tot_emp": "523", "shelter_id": "NOT AVAILABLE" }, "geometry": { "type": "Point", "coordinates": [ -9785839.385351458564401, 5318879.31703591439873 ] } },
{ "type": "Feature", "properties": { "fid": 59, "objectid": "4045", "ipedsid": "225432", "name": "UNIVERSITY OF HOUSTON-DOWNTOWN", "address": "1 MAIN STREET", "city": "HOUSTON", "state": "TX", "zip": "77002", "zip4": "1014", "telephone": "(713) 221-8000", "type": "1", "status": "A", "population": "16610", "county": "HARRIS", "countyfips": "48201", "country": "USA", "latitude": "29.76609959700005", "longitude": "-95.35933794899995", "naics_code": "611310", "naics_desc": "COLLEGES, UNIVERSITIES, AND PROFESSIONAL SCHOOLS", "source": "https://nces.ed.gov/collegenavigator/?id=225432", "sourcedate": "2009-12-10T01:00:00", "val_method": "IMAGERY/OTHER", "val_date": "2016-08-15T02:00:00", "website": "www.uhd.edu/", "stfips": "48", "cofips": "201", "sector": "1", "level": "2", "hi_offer": "20", "deg_grant": "1", "locale": "11", "close_date": "-2", "merge_id": "-2", "alias": "NOT AVAILABLE", "size_set": "20", "inst_size": "4", "pt_enroll": "8242", "ft_enroll": "6997", "tot_enroll": "15239", "housing": "2", "dorm_cap": "-999", "tot_emp": "1371", "shelter_id": "NOT AVAILABLE" }, "geometry": { "type": "Point", "coordinates": [ -10615352.942866364493966, 3473519.420235546771437 ] } },
{ "type": "Feature", "properties": { "fid": 60, "objectid": "4074", "ipedsid": "215105", "name": "THE UNIVERSITY OF THE ARTS", "address": "320 SOUTH BROAD ST", "city": "PHILADELPHIA", "state": "PA", "zip": "19102", "zip4": "4901", "telephone": "(800) 616-2787", "type": "2", "status": "A", "population": "2074", "county": "PHILADELPHIA", "countyfips": "42101", "country": "USA", "latitude": "39.94601684000003", "longitude": "-75.16588776699996", "naics_code": "611310", "naics_desc": "COLLEGES, UNIVERSITIES, AND PROFESSIONAL SCHOOLS", "source": "https://nces.ed.gov/collegenavigator/?id=215105", "sourcedate": "2009-10-13T02:00:00", "val_method": "IMAGERY/OTHER", "val_date": "2016-08-24T02:00:00", "website": "https://www.uarts.edu/", "stfips": "42", "cofips": "101", "sector": "2", "level": "1", "hi_offer": "12", "deg_grant": "1", "locale": "11", "close_date": "-2", "merge_id": "-2", "alias": "UARTS", "size_set": "30", "inst_size": "2", "pt_enroll": "81", "ft_enroll": "1449", "tot_enroll": "1530", "housing": "1", "dorm_cap": "642", "tot_emp": "544", "shelter_id": "NOT AVAILABLE" }, "geometry": { "type": "Point", "coordinates": [ -8367428.351246786303818, 4858100.691967889666557 ] } },
{ "type": "Feature", "properties": { "fid": 61, "objectid": "4478", "ipedsid": "167215", "name": "NEW ENGLAND LAW-BOSTON", "address": "154 STUART ST", "city": "BOSTON", "state": "MA", "zip": "02116", "zip4": "NOT AVAILABLE", "telephone": "(617) 451-0010", "type": "2", "status": "A", "population": "1087", "county": "SUFFOLK", "countyfips": "25025", "country": "USA", "latitude": "42.35083265700007", "longitude": "-71.06649993899998", "naics_code": "611310", "naics_desc": "COLLEGES, UNIVERSITIES, AND PROFESSIONAL SCHOOLS", "source": "https://nces.ed.gov/collegenavigator/?id=167215", "sourcedate": "2009-10-13T02:00:00", "val_method": "IMAGERY", "val_date": "2016-06-09T02:00:00", "website": "www.nesl.edu/", "stfips": "25", "cofips": "025", "sector": "2", "level": "2", "hi_offer": "13", "deg_grant": "1", "locale": "11", "close_date": "-2", "merge_id": "-2", "alias": "NEW ENGLAND LAW | BOSTON", "size_set": "31", "inst_size": "1", "pt_enroll": "208", "ft_enroll": "696", "tot_enroll": "904", "housing": "2", "dorm_cap": "-999", "tot_emp": "183", "shelter_id": "NOT AVAILABLE" }, "geometry": { "type": "Point", "coordinates": [ -7911086.585669685155153, 5213678.21136998385191 ] } },
{ "type": "Feature", "properties": { "fid": 62, "objectid": "6152", "ipedsid": "414595", "name": "PACIFIC COLLEGE OF ORIENTAL MEDICINE-NEW YORK", "address": "110 WILLIAM ST. 19TH FL", "city": "NEW YORK", "state": "NY", "zip": "10038", "zip4": "NOT AVAILABLE", "telephone": "(212) 982-3456", "type": "3", "status": "A", "population": "788", "county": "NEW YORK", "countyfips": "36061", "country": "USA", "latitude": "40.70889901800007", "longitude": "-74.00662873599998", "naics_code": "611310", "naics_desc": "COLLEGES, UNIVERSITIES, AND PROFESSIONAL SCHOOLS", "source": "https://nces.ed.gov/collegenavigator/?id=414595", "sourcedate": "2009-10-13T02:00:00", "val_method": "IMAGERY/OTHER", "val_date": "2019-01-31T01:00:00", "website": "www.pacificcollege.edu/", "stfips": "36", "cofips": "061", "sector": "3", "level": "1", "hi_offer": "20", "deg_grant": "1", "locale": "11", "close_date": "-2", "merge_id": "-2", "alias": "PACIFIC COLLEGE OF HEALTH AND SCIENCE", "size_set": "26", "inst_size": "1", "pt_enroll": "331", "ft_enroll": "346", "tot_enroll": "677", "housing": "2", "dorm_cap": "-999", "tot_emp": "111", "shelter_id": "NOT AVAILABLE" }, "geometry": { "type": "Point", "coordinates": [ -8238380.226218365132809, 4969498.691122530028224 ] } },
{ "type": "Feature", "properties": { "fid": 63, "objectid": "1063", "ipedsid": "110398", "name": "UNIVERSITY OF CALIFORNIA-HASTINGS COLLEGE OF LAW", "address": "200 MCALLISTER STREET", "city": "SAN FRANCISCO", "state": "CA", "zip": "94102", "zip4": "4978", "telephone": "(415) 565-4600", "type": "1", "status": "A", "population": "1374", "county": "SAN FRANCISCO", "countyfips": "06075", "country": "USA", "latitude": "37.78113678500006", "longitude": "-122.41569957099995", "naics_code": "611310", "naics_desc": "COLLEGES, UNIVERSITIES, AND PROFESSIONAL SCHOOLS", "source": "https://nces.ed.gov/collegenavigator/?id=110398", "sourcedate": "2009-10-13T02:00:00", "val_method": "IMAGERY/OTHER", "val_date": "2016-07-15T02:00:00", "website": "www.uchastings.edu/", "stfips": "06", "cofips": "075", "sector": "1", "level": "1", "hi_offer": "13", "deg_grant": "1", "locale": "11", "close_date": "-2", "merge_id": "-2", "alias": "UC HASTINGS", "size_set": "31", "inst_size": "2", "pt_enroll": "25", "ft_enroll": "1001", "tot_enroll": "1026", "housing": "1", "dorm_cap": "425", "tot_emp": "348", "shelter_id": "NOT AVAILABLE" }, "geometry": { "type": "Point", "coordinates": [ -13627253.341346072033048, 4548553.750633583404124 ] } },
{ "type": "Feature", "properties": { "fid": 64, "objectid": "1511", "ipedsid": "193654", "name": "THE NEW SCHOOL", "address": "66 WEST 12TH STREET", "city": "NEW YORK", "state": "NY", "zip": "10011", "zip4": "8871", "telephone": "(212) 229-5600", "type": "2", "status": "A", "population": "12064", "county": "NEW YORK", "countyfips": "36061", "country": "USA", "latitude": "40.735498000000064", "longitude": "-73.99715799999996", "naics_code": "611310", "naics_desc": "COLLEGES, UNIVERSITIES, AND PROFESSIONAL SCHOOLS", "source": "https://nces.ed.gov/collegenavigator/?id=193654", "sourcedate": "2009-10-13T02:00:00", "val_method": "IMAGERY/OTHER", "val_date": "2019-01-28T01:00:00", "website": "https://www.newschool.edu/", "stfips": "36", "cofips": "061", "sector": "2", "level": "2", "hi_offer": "12", "deg_grant": "1", "locale": "11", "close_date": "-2", "merge_id": "-2", "alias": "NEW SCHOOL UNIVERSITY; PARSONS THE NEW SCHOOL FOR DESIGN; NEW SCHOOL FOR SOCIAL RESEARCH; EUGENE LANG COLLEGE; MANNES COLLEGE; THE NEW SCHOOL FOR DRAMA; THE NEW SCHOOL FOR JAZZ AND CONTEMPORARY MUSIC; THE NEW SCHOOL FOR PUBLIC ENGAGEMENT", "size_set": "16", "inst_size": "3", "pt_enroll": "1123", "ft_enroll": "7924", "tot_enroll": "9047", "housing": "1", "dorm_cap": "2172", "tot_emp": "3017", "shelter_id": "NOT AVAILABLE" }, "geometry": { "type": "Point", "coordinates": [ -8237325.94870940502733, 4973405.614145891740918 ] } },
{ "type": "Feature", "properties": { "fid": 65, "objectid": "2537", "ipedsid": "126049", "name": "THOMAS JEFFERSON SCHOOL OF LAW", "address": "701 B STREET - SUITE 110", "city": "SAN DIEGO", "state": "CA", "zip": "92101", "zip4": "NOT AVAILABLE", "telephone": "(619) 961-4325", "type": "2", "status": "A", "population": "301", "county": "SAN DIEGO", "countyfips": "06073", "country": "USA", "latitude": "32.717955473000075", "longitude": "-117.15829374999998", "naics_code": "611310", "naics_desc": "COLLEGES, UNIVERSITIES, AND PROFESSIONAL SCHOOLS", "source": "https://nces.ed.gov/collegenavigator/?id=126049", "sourcedate": "2009-12-10T01:00:00", "val_method": "IMAGERY/OTHER", "val_date": "2020-01-30T01:00:00", "website": "www.tjsl.edu/", "stfips": "06", "cofips": "073", "sector": "2", "level": "2", "hi_offer": "13", "deg_grant": "1", "locale": "11", "close_date": "-2", "merge_id": "-2", "alias": "NOT AVAILABLE", "size_set": "31", "inst_size": "1", "pt_enroll": "72", "ft_enroll": "175", "tot_enroll": "247", "housing": "2", "dorm_cap": "-999", "tot_emp": "54", "shelter_id": "NOT AVAILABLE" }, "geometry": { "type": "Point", "coordinates": [ -13042001.602458763867617, 3857926.830316761042923 ] } },
{ "type": "Feature", "properties": { "fid": 66, "objectid": "5385", "ipedsid": "202170", "name": "COLUMBUS COLLEGE OF ART AND DESIGN", "address": "60 CLEVELAND AVE.", "city": "COLUMBUS", "state": "OH", "zip": "43215", "zip4": "NOT AVAILABLE", "telephone": "(614) 224-9101", "type": "2", "status": "A", "population": "1284", "county": "FRANKLIN", "countyfips": "39049", "country": "USA", "latitude": "39.96472930200008", "longitude": "-82.98987057599999", "naics_code": "611310", "naics_desc": "COLLEGES, UNIVERSITIES, AND PROFESSIONAL SCHOOLS", "source": "https://nces.ed.gov/collegenavigator/?id=202170", "sourcedate": "2009-12-10T01:00:00", "val_method": "IMAGERY/OTHER", "val_date": "2016-08-16T02:00:00", "website": "www.ccad.edu/", "stfips": "39", "cofips": "049", "sector": "2", "level": "1", "hi_offer": "20", "deg_grant": "1", "locale": "11", "close_date": "-2", "merge_id": "-2", "alias": "CCAD", "size_set": "30", "inst_size": "2", "pt_enroll": "25", "ft_enroll": "984", "tot_enroll": "1009", "housing": "1", "dorm_cap": "438", "tot_emp": "275", "shelter_id": "NOT AVAILABLE" }, "geometry": { "type": "Point", "coordinates": [ -9238390.133519995957613, 4860818.160763815976679 ] } },
{ "type": "Feature", "properties": { "fid": 67, "objectid": "496", "ipedsid": "215442", "name": "POINT PARK UNIVERSITY", "address": "201 WOOD ST", "city": "PITTSBURGH", "state": "PA", "zip": "15222", "zip4": "1984", "telephone": "(412) 391-4100", "type": "2", "status": "A", "population": "4423", "county": "ALLEGHENY", "countyfips": "42003", "country": "USA", "latitude": "40.43852558700007", "longitude": "-80.00146171799997", "naics_code": "611310", "naics_desc": "COLLEGES, UNIVERSITIES, AND PROFESSIONAL SCHOOLS", "source": "https://nces.ed.gov/collegenavigator/?id=215442", "sourcedate": "2009-10-13T02:00:00", "val_method": "GEOCODE", "val_date": "2016-08-22T02:00:00", "website": "www.pointpark.edu/", "stfips": "42", "cofips": "003", "sector": "2", "level": "2", "hi_offer": "11", "deg_grant": "1", "locale": "11", "close_date": "-2", "merge_id": "-2", "alias": "NOT AVAILABLE", "size_set": "18", "inst_size": "2", "pt_enroll": "1011", "ft_enroll": "2580", "tot_enroll": "3591", "housing": "1", "dorm_cap": "1070", "tot_emp": "832", "shelter_id": "NOT AVAILABLE" }, "geometry": { "type": "Point", "coordinates": [ -8905721.981165327131748, 4929873.759665186516941 ] } },
{ "type": "Feature", "properties": { "fid": 68, "objectid": "4819", "ipedsid": "147031", "name": "MEADVILLE LOMBARD THEOLOGICAL SCHOOL", "address": "610 S. MICHIGAN AVENUE", "city": "CHICAGO", "state": "IL", "zip": "60605", "zip4": "NOT AVAILABLE", "telephone": "(773) 256-3000", "type": "2", "status": "A", "population": "120", "county": "COOK", "countyfips": "17031", "country": "USA", "latitude": "41.87399852900006", "longitude": "-87.62496435099996", "naics_code": "611310", "naics_desc": "COLLEGES, UNIVERSITIES, AND PROFESSIONAL SCHOOLS", "source": "https://nces.ed.gov/collegenavigator/?id=147031", "sourcedate": "2009-10-13T02:00:00", "val_method": "IMAGERY/OTHER", "val_date": "2016-06-24T02:00:00", "website": "www.meadville.edu/", "stfips": "17", "cofips": "031", "sector": "2", "level": "2", "hi_offer": "20", "deg_grant": "1", "locale": "11", "close_date": "-2", "merge_id": "-2", "alias": "NOT AVAILABLE", "size_set": "24", "inst_size": "1", "pt_enroll": "26", "ft_enroll": "57", "tot_enroll": "83", "housing": "2", "dorm_cap": "-999", "tot_emp": "37", "shelter_id": "NOT AVAILABLE" }, "geometry": { "type": "Point", "coordinates": [ -9754366.412332065403461, 5142123.681712507270277 ] } },
{ "type": "Feature", "properties": { "fid": 69, "objectid": "4828", "ipedsid": "125231", "name": "WALDEN UNIVERSITY", "address": "100 WASHINGTON AVENUE SOUTH, SUITE 900", "city": "MINNEAPOLIS", "state": "MN", "zip": "55401", "zip4": "NOT AVAILABLE", "telephone": "(866) 492-5336", "type": "3", "status": "A", "population": "54019", "county": "HENNEPIN", "countyfips": "27053", "country": "USA", "latitude": "44.98119483700003", "longitude": "-93.26581548199994", "naics_code": "611310", "naics_desc": "COLLEGES, UNIVERSITIES, AND PROFESSIONAL SCHOOLS", "source": "https://nces.ed.gov/collegenavigator/?id=125231", "sourcedate": "2009-10-13T02:00:00", "val_method": "GEOCODE", "val_date": "2015-10-23T02:00:00", "website": "www.waldenu.edu/", "stfips": "27", "cofips": "053", "sector": "3", "level": "1", "hi_offer": "12", "deg_grant": "1", "locale": "11", "close_date": "-2", "merge_id": "-2", "alias": "NOT AVAILABLE", "size_set": "17", "inst_size": "5", "pt_enroll": "29080", "ft_enroll": "20615", "tot_enroll": "49695", "housing": "2", "dorm_cap": "-999", "tot_emp": "4324", "shelter_id": "NOT AVAILABLE" }, "geometry": { "type": "Point", "coordinates": [ -10382303.087875643745065, 5618561.483825484290719 ] } },
{ "type": "Feature", "properties": { "fid": 70, "objectid": "1513", "ipedsid": "191320", "name": "THE GENERAL THEOLOGICAL SEMINARY", "address": "440 WEST 21ST STREET", "city": "NEW YORK", "state": "NY", "zip": "10011", "zip4": "NOT AVAILABLE", "telephone": "(212) 243-5150", "type": "2", "status": "A", "population": "90", "county": "NEW YORK", "countyfips": "36061", "country": "USA", "latitude": "40.745558053000025", "longitude": "-74.00376685099997", "naics_code": "611310", "naics_desc": "COLLEGES, UNIVERSITIES, AND PROFESSIONAL SCHOOLS", "source": "https://nces.ed.gov/collegenavigator/?id=191320", "sourcedate": "2009-10-13T02:00:00", "val_method": "IMAGERY/OTHER", "val_date": "2015-12-01T01:00:00", "website": "www.gts.edu/", "stfips": "36", "cofips": "061", "sector": "2", "level": "3", "hi_offer": "12", "deg_grant": "1", "locale": "11", "close_date": "-2", "merge_id": "-2", "alias": "GTS", "size_set": "24", "inst_size": "1", "pt_enroll": "28", "ft_enroll": "28", "tot_enroll": "56", "housing": "1", "dorm_cap": "68", "tot_emp": "34", "shelter_id": "NOT AVAILABLE" }, "geometry": { "type": "Point", "coordinates": [ -8238061.642637454904616, 4974883.666219533421099 ] } },
{ "type": "Feature", "properties": { "fid": 71, "objectid": "1906", "ipedsid": "117557", "name": "LINCOLN UNIVERSITY", "address": "401 15TH STREET", "city": "OAKLAND", "state": "CA", "zip": "94612", "zip4": "2801", "telephone": "(510) 628-8010", "type": "2", "status": "A", "population": "440", "county": "ALAMEDA", "countyfips": "06001", "country": "USA", "latitude": "37.80478781200003", "longitude": "-122.26974493999995", "naics_code": "611310", "naics_desc": "COLLEGES, UNIVERSITIES, AND PROFESSIONAL SCHOOLS", "source": "https://nces.ed.gov/collegenavigator/?id=117557", "sourcedate": "2009-10-13T02:00:00", "val_method": "IMAGERY", "val_date": "2016-07-18T02:00:00", "website": "www.lincolnuca.edu/", "stfips": "06", "cofips": "001", "sector": "2", "level": "1", "hi_offer": "12", "deg_grant": "1", "locale": "11", "close_date": "-2", "merge_id": "-2", "alias": "NOT AVAILABLE", "size_set": "29", "inst_size": "1", "pt_enroll": "14", "ft_enroll": "357", "tot_enroll": "371", "housing": "2", "dorm_cap": "-999", "tot_emp": "69", "shelter_id": "NOT AVAILABLE" }, "geometry": { "type": "Point", "coordinates": [ -13611005.74614423327148, 4551885.463370240293443 ] } },
{ "type": "Feature", "properties": { "fid": 72, "objectid": "1046", "ipedsid": "193821", "name": "NEW YORK LAW SCHOOL", "address": "185 WEST BROADWAY", "city": "NEW YORK", "state": "NY", "zip": "10013", "zip4": "2921", "telephone": "(212) 431-2100", "type": "2", "status": "A", "population": "1329", "county": "NEW YORK", "countyfips": "36061", "country": "USA", "latitude": "40.71776230000006", "longitude": "-74.00689415299996", "naics_code": "611310", "naics_desc": "COLLEGES, UNIVERSITIES, AND PROFESSIONAL SCHOOLS", "source": "https://nces.ed.gov/collegenavigator/?id=193821", "sourcedate": "2009-10-13T02:00:00", "val_method": "IMAGERY/OTHER", "val_date": "2019-01-28T01:00:00", "website": "www.nyls.edu/", "stfips": "36", "cofips": "061", "sector": "2", "level": "1", "hi_offer": "13", "deg_grant": "1", "locale": "11", "close_date": "-2", "merge_id": "-2", "alias": "NOT AVAILABLE", "size_set": "31", "inst_size": "2", "pt_enroll": "210", "ft_enroll": "866", "tot_enroll": "1076", "housing": "1", "dorm_cap": "50", "tot_emp": "253", "shelter_id": "NOT AVAILABLE" }, "geometry": { "type": "Point", "coordinates": [ -8238409.772303650155663, 4970800.378056687302887 ] } },
{ "type": "Feature", "properties": { "fid": 73, "objectid": "2942", "ipedsid": "193070", "name": "MESIVTHA TIFERETH JERUSALEM OF AMERICA", "address": "145 E BROADWAY", "city": "NEW YORK", "state": "NY", "zip": "10002", "zip4": "6301", "telephone": "(212) 964-2830", "type": "2", "status": "A", "population": "73", "county": "NEW YORK", "countyfips": "36061", "country": "USA", "latitude": "40.713812344000075", "longitude": "-73.99127087099998", "naics_code": "611310", "naics_desc": "COLLEGES, UNIVERSITIES, AND PROFESSIONAL SCHOOLS", "source": "https://nces.ed.gov/collegenavigator/?id=193070", "sourcedate": "2009-10-13T02:00:00", "val_method": "IMAGERY/OTHER", "val_date": "2016-07-01T02:00:00", "website": "mtj.edu/", "stfips": "36", "cofips": "061", "sector": "2", "level": "1", "hi_offer": "12", "deg_grant": "1", "locale": "11", "close_date": "-2", "merge_id": "-2", "alias": "NOT AVAILABLE", "size_set": "24", "inst_size": "1", "pt_enroll": "-999", "ft_enroll": "62", "tot_enroll": "62", "housing": "1", "dorm_cap": "140", "tot_emp": "11", "shelter_id": "NOT AVAILABLE" }, "geometry": { "type": "Point", "coordinates": [ -8236670.596506893634796, 4970220.254821472801268 ] } },
{ "type": "Feature", "properties": { "fid": 74, "objectid": "112", "ipedsid": "487375", "name": "ARIZONA COLLEGE OF NURSING-LAS VEGAS", "address": "2320 SOUTH RANCHO DRIVE", "city": "LAS VEGAS", "state": "NV", "zip": "89102", "zip4": "4512", "telephone": "(855) 706-8382", "type": "3", "status": "A", "population": "817", "county": "CLARK", "countyfips": "32003", "country": "USA", "latitude": "36.14560000000006", "longitude": "-115.17133099999995", "naics_code": "611310", "naics_desc": "COLLEGES, UNIVERSITIES, AND PROFESSIONAL SCHOOLS", "source": "https://nces.ed.gov/collegenavigator/?id=487375", "sourcedate": "2018-02-13T01:00:00", "val_method": "IMAGERY/OTHER", "val_date": "2018-02-16T01:00:00", "website": "https://www.arizonacollege.edu/", "stfips": "32", "cofips": "003", "sector": "3", "level": "3", "hi_offer": "30", "deg_grant": "1", "locale": "11", "close_date": "-2", "merge_id": "-2", "alias": "NOT AVAILABLE", "size_set": "-2", "inst_size": "1", "pt_enroll": "365", "ft_enroll": "381", "tot_enroll": "746", "housing": "2", "dorm_cap": "-999", "tot_emp": "71", "shelter_id": "NOT AVAILABLE" }, "geometry": { "type": "Point", "coordinates": [ -12820813.920903557911515, 4320674.246505166403949 ] } },
{ "type": "Feature", "properties": { "fid": 75, "objectid": "4183", "ipedsid": "202134", "name": "CLEVELAND STATE UNIVERSITY", "address": "2121 EUCLID AVENUE", "city": "CLEVELAND", "state": "OH", "zip": "44115", "zip4": "2214", "telephone": "(216) 687-2000", "type": "1", "status": "A", "population": "17600", "county": "CUYAHOGA", "countyfips": "39035", "country": "USA", "latitude": "41.502281363000066", "longitude": "-81.67435525499997", "naics_code": "611310", "naics_desc": "COLLEGES, UNIVERSITIES, AND PROFESSIONAL SCHOOLS", "source": "https://nces.ed.gov/collegenavigator/?id=202134", "sourcedate": "2009-12-10T01:00:00", "val_method": "IMAGERY/OTHER", "val_date": "2016-08-16T02:00:00", "website": "www.csuohio.edu/", "stfips": "39", "cofips": "035", "sector": "1", "level": "2", "hi_offer": "11", "deg_grant": "1", "locale": "11", "close_date": "-2", "merge_id": "-2", "alias": "NOT AVAILABLE", "size_set": "16", "inst_size": "4", "pt_enroll": "4432", "ft_enroll": "10815", "tot_enroll": "15247", "housing": "1", "dorm_cap": "1011", "tot_emp": "2353", "shelter_id": "NOT AVAILABLE" }, "geometry": { "type": "Point", "coordinates": [ -9091947.637855524197221, 5086712.740950296632946 ] } },
{ "type": "Feature", "properties": { "fid": 76, "objectid": "6323", "ipedsid": "492102", "name": "DANIEL MORGAN GRADUATE SCHOOL OF NATIONAL SECURITY", "address": "1620 L STREET, NW", "city": "WASHINGTON", "state": "DC", "zip": "20036", "zip4": "5699", "telephone": "(202) 759-4988", "type": "2", "status": "A", "population": "-999", "county": "DISTRICT OF COLUMBIA", "countyfips": "11001", "country": "USA", "latitude": "38.90339430800003", "longitude": "-77.03776950399998", "naics_code": "611310", "naics_desc": "COLLEGES, UNIVERSITIES, AND PROFESSIONAL SCHOOLS", "source": "https://nces.ed.gov/collegenavigator/?id=492102", "sourcedate": "2019-12-04T01:00:00", "val_method": "IMAGERY/OTHER", "val_date": "2019-12-16T01:00:00", "website": "dmgs.org/", "stfips": "11", "cofips": "001", "sector": "2", "level": "3", "hi_offer": "20", "deg_grant": "1", "locale": "11", "close_date": "-2", "merge_id": "-2", "alias": "NOT AVAILABLE", "size_set": "-2", "inst_size": "-1", "pt_enroll": "-999", "ft_enroll": "-999", "tot_enroll": "-999", "housing": "-1", "dorm_cap": "-999", "tot_emp": "-999", "shelter_id": "NOT AVAILABLE" }, "geometry": { "type": "Point", "coordinates": [ -8575805.273034857586026, 4707843.067904747091234 ] } },
{ "type": "Feature", "properties": { "fid": 77, "objectid": "3304", "ipedsid": "486053", "name": "BETHLEHEM COLLEGE & SEMINARY", "address": "720 13TH AVENUE SOUTH", "city": "MINNEAPOLIS", "state": "MN", "zip": "55415", "zip4": "1793", "telephone": "(612) 455-3420", "type": "2", "status": "A", "population": "247", "county": "HENNEPIN", "countyfips": "27053", "country": "USA", "latitude": "44.968893018000074", "longitude": "-93.25537768799995", "naics_code": "611310", "naics_desc": "COLLEGES, UNIVERSITIES, AND PROFESSIONAL SCHOOLS", "source": "https://nces.ed.gov/collegenavigator/?id=486053", "sourcedate": "2018-02-13T01:00:00", "val_method": "IMAGERY/OTHER", "val_date": "2018-02-20T01:00:00", "website": "bcsmn.edu/", "stfips": "27", "cofips": "053", "sector": "2", "level": "1", "hi_offer": "20", "deg_grant": "1", "locale": "11", "close_date": "-2", "merge_id": "-2", "alias": "NOT AVAILABLE", "size_set": "-2", "inst_size": "1", "pt_enroll": "38", "ft_enroll": "172", "tot_enroll": "210", "housing": "1", "dorm_cap": "20", "tot_emp": "37", "shelter_id": "NOT AVAILABLE" }, "geometry": { "type": "Point", "coordinates": [ -10381141.157962560653687, 5616625.657182197086513 ] } },
{ "type": "Feature", "properties": { "fid": 78, "objectid": "1101", "ipedsid": "142887", "name": "AMERICAN ACADEMY OF ART", "address": "332 S MICHIGAN AVE", "city": "CHICAGO", "state": "IL", "zip": "60604", "zip4": "4302", "telephone": "(312) 461-0600", "type": "2", "status": "A", "population": "239", "county": "COOK", "countyfips": "17031", "country": "USA", "latitude": "41.87711611900005", "longitude": "-87.62480480899995", "naics_code": "611310", "naics_desc": "COLLEGES, UNIVERSITIES, AND PROFESSIONAL SCHOOLS", "source": "https://nces.ed.gov/collegenavigator/?id=142887", "sourcedate": "2009-10-13T02:00:00", "val_method": "IMAGERY/OTHER", "val_date": "2015-10-28T01:00:00", "website": "https://www.aaart.edu/", "stfips": "17", "cofips": "031", "sector": "2", "level": "3", "hi_offer": "30", "deg_grant": "1", "locale": "11", "close_date": "-2", "merge_id": "-2", "alias": "NOT AVAILABLE", "size_set": "30", "inst_size": "1", "pt_enroll": "41", "ft_enroll": "128", "tot_enroll": "169", "housing": "2", "dorm_cap": "-999", "tot_emp": "70", "shelter_id": "NOT AVAILABLE" }, "geometry": { "type": "Point", "coordinates": [ -9754348.652197863906622, 5142589.771181989461184 ] } },
{ "type": "Feature", "properties": { "fid": 79, "objectid": "431", "ipedsid": "214148", "name": "MOORE COLLEGE OF ART AND DESIGN", "address": "20TH AND THE PARKWAY", "city": "PHILADELPHIA", "state": "PA", "zip": "19103", "zip4": "1179", "telephone": "(215) 568-4515", "type": "2", "status": "A", "population": "565", "county": "PHILADELPHIA", "countyfips": "42101", "country": "USA", "latitude": "39.957078000000024", "longitude": "-75.17210499999999", "naics_code": "611310", "naics_desc": "COLLEGES, UNIVERSITIES, AND PROFESSIONAL SCHOOLS", "source": "https://nces.ed.gov/collegenavigator/?id=214148", "sourcedate": "2009-12-31T01:00:00", "val_method": "IMAGERY", "val_date": "2016-08-22T02:00:00", "website": "www.moore.edu/", "stfips": "42", "cofips": "101", "sector": "2", "level": "1", "hi_offer": "20", "deg_grant": "1", "locale": "11", "close_date": "-2", "merge_id": "-2", "alias": "MOORE COLLEGE", "size_set": "30", "inst_size": "1", "pt_enroll": "17", "ft_enroll": "372", "tot_enroll": "389", "housing": "1", "dorm_cap": "184", "tot_emp": "176", "shelter_id": "NOT AVAILABLE" }, "geometry": { "type": "Point", "coordinates": [ -8368120.450458492152393, 4859706.930403308942914 ] } },
{ "type": "Feature", "properties": { "fid": 80, "objectid": "4105", "ipedsid": "483586", "name": "CALIFORNIA INTERNATIONAL BUSINESS UNIVERSITY", "address": "550 WEST B STREET", "city": "SAN DIEGO", "state": "CA", "zip": "92101", "zip4": "NOT AVAILABLE", "telephone": "(619) 384-8596", "type": "2", "status": "A", "population": "-999", "county": "SAN DIEGO", "countyfips": "06073", "country": "USA", "latitude": "32.72006896900007", "longitude": "-117.16766386999996", "naics_code": "611310", "naics_desc": "COLLEGES, UNIVERSITIES, AND PROFESSIONAL SCHOOLS", "source": "https://nces.ed.gov/collegenavigator/?id=483586", "sourcedate": "2016-01-21T01:00:00", "val_method": "IMAGERY/OTHER", "val_date": "2016-01-21T01:00:00", "website": "www.cibu.edu", "stfips": "06", "cofips": "073", "sector": "2", "level": "1", "hi_offer": "12", "deg_grant": "1", "locale": "11", "close_date": "-2", "merge_id": "-2", "alias": "NOT AVAILABLE", "size_set": "-2", "inst_size": "-1", "pt_enroll": "-999", "ft_enroll": "-999", "tot_enroll": "-999", "housing": "-1", "dorm_cap": "-999", "tot_emp": "-999", "shelter_id": "NOT AVAILABLE" }, "geometry": { "type": "Point", "coordinates": [ -13043044.679445832967758, 3858206.474317908287048 ] } },
{ "type": "Feature", "properties": { "fid": 81, "objectid": "5298", "ipedsid": "442842", "name": "PACIFIC COLLEGE OF HEALTH SCIENCE-CHICAGO", "address": "65 EAST WACKER PLACE, 21ST FL", "city": "CHICAGO", "state": "IL", "zip": "60601", "zip4": "NOT AVAILABLE", "telephone": "(773) 477-4822 EXT 301", "type": "3", "status": "A", "population": "252", "county": "COOK", "countyfips": "17031", "country": "USA", "latitude": "41.886588000000074", "longitude": "-87.62548799999996", "naics_code": "611310", "naics_desc": "COLLEGES, UNIVERSITIES, AND PROFESSIONAL SCHOOLS", "source": "https://nces.ed.gov/collegenavigator/?id=442842", "sourcedate": "2009-10-13T02:00:00", "val_method": "IMAGERY/OTHER", "val_date": "2019-03-25T01:00:00", "website": "www.pacificcollege.edu/", "stfips": "17", "cofips": "031", "sector": "3", "level": "1", "hi_offer": "13", "deg_grant": "1", "locale": "11", "close_date": "-2", "merge_id": "-2", "alias": "NOT AVAILABLE", "size_set": "26", "inst_size": "1", "pt_enroll": "69", "ft_enroll": "127", "tot_enroll": "196", "housing": "2", "dorm_cap": "-999", "tot_emp": "56", "shelter_id": "NOT AVAILABLE" }, "geometry": { "type": "Point", "coordinates": [ -9754424.704672100022435, 5144005.986554250121117 ] } },
{ "type": "Feature", "properties": { "fid": 82, "objectid": "1446", "ipedsid": "235024", "name": "CORNISH COLLEGE OF THE ARTS", "address": "1000 LENORA STREET", "city": "SEATTLE", "state": "WA", "zip": "98121", "zip4": "NOT AVAILABLE", "telephone": "(206) 726-5016", "type": "2", "status": "A", "population": "676", "county": "KING", "countyfips": "53033", "country": "USA", "latitude": "47.61804775600007", "longitude": "-122.33619202799997", "naics_code": "611310", "naics_desc": "COLLEGES, UNIVERSITIES, AND PROFESSIONAL SCHOOLS", "source": "https://nces.ed.gov/collegenavigator/?id=235024", "sourcedate": "2009-10-13T02:00:00", "val_method": "IMAGERY/OTHER", "val_date": "2016-06-15T02:00:00", "website": "www.cornish.edu/", "stfips": "53", "cofips": "033", "sector": "2", "level": "2", "hi_offer": "30", "deg_grant": "1", "locale": "11", "close_date": "-2", "merge_id": "-2", "alias": "NOT AVAILABLE", "size_set": "30", "inst_size": "1", "pt_enroll": "12", "ft_enroll": "470", "tot_enroll": "482", "housing": "1", "dorm_cap": "324", "tot_emp": "194", "shelter_id": "NOT AVAILABLE" }, "geometry": { "type": "Point", "coordinates": [ -13618402.602145090699196, 6043545.197703151963651 ] } },
{ "type": "Feature", "properties": { "fid": 83, "objectid": "103", "ipedsid": "485768", "name": "ATLANTIS UNIVERSITY", "address": "1442 BISCAYNE BOULEVARD", "city": "MIAMI", "state": "FL", "zip": "33132", "zip4": "NOT AVAILABLE", "telephone": "(305) 377-8817 EXT 1005", "type": "3", "status": "A", "population": "617", "county": "MIAMI-DADE", "countyfips": "12086", "country": "USA", "latitude": "25.78897478500005", "longitude": "-80.18944553499995", "naics_code": "611310", "naics_desc": "COLLEGES, UNIVERSITIES, AND PROFESSIONAL SCHOOLS", "source": "https://nces.ed.gov/collegenavigator/?id=485768", "sourcedate": "2018-02-13T01:00:00", "val_method": "IMAGERY/OTHER", "val_date": "2018-02-15T01:00:00", "website": "www.atlantisuniversity.edu/", "stfips": "12", "cofips": "086", "sector": "3", "level": "1", "hi_offer": "20", "deg_grant": "1", "locale": "11", "close_date": "-2", "merge_id": "-2", "alias": "NOT AVAILABLE", "size_set": "-2", "inst_size": "1", "pt_enroll": "5", "ft_enroll": "545", "tot_enroll": "550", "housing": "2", "dorm_cap": "-999", "tot_emp": "67", "shelter_id": "NOT AVAILABLE" }, "geometry": { "type": "Point", "coordinates": [ -8926648.243951139971614, 2972967.95523810852319 ] } },
{ "type": "Feature", "properties": { "fid": 84, "objectid": "5933", "ipedsid": "445708", "name": "JOHNSON & WALES UNIVERSITY-CHARLOTTE", "address": "ACADEMIC CENTER, 801 WEST TRADE STREET", "city": "CHARLOTTE", "state": "NC", "zip": "28202", "zip4": "NOT AVAILABLE", "telephone": "(866) 598-2427", "type": "2", "status": "A", "population": "1621", "county": "MECKLENBURG", "countyfips": "37119", "country": "USA", "latitude": "35.23405834700003", "longitude": "-80.85204214099997", "naics_code": "611310", "naics_desc": "COLLEGES, UNIVERSITIES, AND PROFESSIONAL SCHOOLS", "source": "https://nces.ed.gov/collegenavigator/?id=445708", "sourcedate": "2009-12-31T01:00:00", "val_method": "IMAGERY", "val_date": "2016-06-06T02:00:00", "website": "https://www.jwu.edu/campuses/charlotte/index.html", "stfips": "37", "cofips": "119", "sector": "2", "level": "3", "hi_offer": "20", "deg_grant": "1", "locale": "11", "close_date": "-2", "merge_id": "-2", "alias": "NOT AVAILABLE", "size_set": "23", "inst_size": "2", "pt_enroll": "70", "ft_enroll": "1326", "tot_enroll": "1396", "housing": "1", "dorm_cap": "1202", "tot_emp": "225", "shelter_id": "NOT AVAILABLE" }, "geometry": { "type": "Point", "coordinates": [ -9000408.160732412710786, 4195734.405598542653024 ] } },
{ "type": "Feature", "properties": { "fid": 85, "objectid": "6199", "ipedsid": "199272", "name": "WILLIAM PEACE UNIVERSITY", "address": "15 E PEACE ST", "city": "RALEIGH", "state": "NC", "zip": "27604", "zip4": "1194", "telephone": "(919) 508-2000", "type": "2", "status": "A", "population": "1062", "county": "WAKE", "countyfips": "37183", "country": "USA", "latitude": "35.78921417200007", "longitude": "-78.63775874199996", "naics_code": "611310", "naics_desc": "COLLEGES, UNIVERSITIES, AND PROFESSIONAL SCHOOLS", "source": "https://nces.ed.gov/collegenavigator/?id=199272", "sourcedate": "2009-10-13T02:00:00", "val_method": "IMAGERY/OTHER", "val_date": "2015-10-16T02:00:00", "website": "www.peace.edu/", "stfips": "37", "cofips": "183", "sector": "2", "level": "1", "hi_offer": "30", "deg_grant": "1", "locale": "11", "close_date": "-2", "merge_id": "-2", "alias": "PEACE", "size_set": "21", "inst_size": "1", "pt_enroll": "97", "ft_enroll": "733", "tot_enroll": "830", "housing": "1", "dorm_cap": "446", "tot_emp": "232", "shelter_id": "NOT AVAILABLE" }, "geometry": { "type": "Point", "coordinates": [ -8753915.260283732786775, 4271656.194914012216032 ] } },
{ "type": "Feature", "properties": { "fid": 86, "objectid": "5537", "ipedsid": "110316", "name": "CALIFORNIA INSTITUTE OF INTEGRAL STUDIES", "address": "1453 MISSION STREET", "city": "SAN FRANCISCO", "state": "CA", "zip": "94103", "zip4": "NOT AVAILABLE", "telephone": "(415) 575-6100", "type": "2", "status": "A", "population": "1871", "county": "SAN FRANCISCO", "countyfips": "06075", "country": "USA", "latitude": "37.77453957200004", "longitude": "-122.41625146499996", "naics_code": "611310", "naics_desc": "COLLEGES, UNIVERSITIES, AND PROFESSIONAL SCHOOLS", "source": "https://nces.ed.gov/collegenavigator/?id=110316", "sourcedate": "2009-10-13T02:00:00", "val_method": "IMAGERY", "val_date": "2016-07-15T02:00:00", "website": "www.ciis.edu/", "stfips": "06", "cofips": "075", "sector": "2", "level": "1", "hi_offer": "11", "deg_grant": "1", "locale": "11", "close_date": "-2", "merge_id": "-2", "alias": "CIIS", "size_set": "17", "inst_size": "2", "pt_enroll": "403", "ft_enroll": "1127", "tot_enroll": "1530", "housing": "2", "dorm_cap": "-999", "tot_emp": "341", "shelter_id": "NOT AVAILABLE" }, "geometry": { "type": "Point", "coordinates": [ -13627314.777905127033591, 4547624.593492985703051 ] } },
{ "type": "Feature", "properties": { "fid": 87, "objectid": "5713", "ipedsid": "148487", "name": "ROOSEVELT UNIVERSITY", "address": "430 S MICHIGAN AVE", "city": "CHICAGO", "state": "IL", "zip": "60605", "zip4": "1394", "telephone": "(312) 341-3500", "type": "2", "status": "A", "population": "5724", "county": "COOK", "countyfips": "17031", "country": "USA", "latitude": "41.876054983000074", "longitude": "-87.62495181699995", "naics_code": "611310", "naics_desc": "COLLEGES, UNIVERSITIES, AND PROFESSIONAL SCHOOLS", "source": "https://nces.ed.gov/collegenavigator/?id=148487", "sourcedate": "2009-10-13T02:00:00", "val_method": "IMAGERY/OTHER", "val_date": "2016-08-05T02:00:00", "website": "www.roosevelt.edu/", "stfips": "17", "cofips": "031", "sector": "2", "level": "1", "hi_offer": "11", "deg_grant": "1", "locale": "11", "close_date": "-2", "merge_id": "-2", "alias": "NOT AVAILABLE", "size_set": "18", "inst_size": "2", "pt_enroll": "1079", "ft_enroll": "3601", "tot_enroll": "4680", "housing": "1", "dorm_cap": "763", "tot_emp": "1044", "shelter_id": "NOT AVAILABLE" }, "geometry": { "type": "Point", "coordinates": [ -9754365.017053566873074, 5142431.125474152155221 ] } },
{ "type": "Feature", "properties": { "fid": 88, "objectid": "2999", "ipedsid": "165662", "name": "EMERSON COLLEGE", "address": "120 BOYLSTON STREET", "city": "BOSTON", "state": "MA", "zip": "02116", "zip4": "4624", "telephone": "(617) 824-8500", "type": "2", "status": "A", "population": "6324", "county": "SUFFOLK", "countyfips": "25025", "country": "USA", "latitude": "42.35214944900008", "longitude": "-71.06547688899997", "naics_code": "611310", "naics_desc": "COLLEGES, UNIVERSITIES, AND PROFESSIONAL SCHOOLS", "source": "https://nces.ed.gov/collegenavigator/?id=165662", "sourcedate": "2009-12-10T01:00:00", "val_method": "IMAGERY/OTHER", "val_date": "2020-01-29T01:00:00", "website": "www.emerson.edu/", "stfips": "25", "cofips": "025", "sector": "2", "level": "2", "hi_offer": "20", "deg_grant": "1", "locale": "11", "close_date": "-2", "merge_id": "-2", "alias": "EMERSON", "size_set": "18", "inst_size": "3", "pt_enroll": "445", "ft_enroll": "4670", "tot_enroll": "5115", "housing": "1", "dorm_cap": "2386", "tot_emp": "1209", "shelter_id": "NOT AVAILABLE" }, "geometry": { "type": "Point", "coordinates": [ -7910972.700264628045261, 5213876.559765450656414 ] } },
{ "type": "Feature", "properties": { "fid": 89, "objectid": "867", "ipedsid": "216366", "name": "THOMAS JEFFERSON UNIVERSITY", "address": "1020 WALNUT STREET", "city": "PHILADELPHIA", "state": "PA", "zip": "19107", "zip4": "NOT AVAILABLE", "telephone": "(215) 955-6000", "type": "2", "status": "A", "population": "13939", "county": "PHILADELPHIA", "countyfips": "42101", "country": "USA", "latitude": "39.94772510400003", "longitude": "-75.15882081299998", "naics_code": "611310", "naics_desc": "COLLEGES, UNIVERSITIES, AND PROFESSIONAL SCHOOLS", "source": "https://nces.ed.gov/collegenavigator/?id=216366", "sourcedate": "2009-10-13T02:00:00", "val_method": "IMAGERY/OTHER", "val_date": "2016-08-24T02:00:00", "website": "www.jefferson.edu/", "stfips": "42", "cofips": "101", "sector": "2", "level": "1", "hi_offer": "11", "deg_grant": "1", "locale": "11", "close_date": "-2", "merge_id": "-2", "alias": "JEFFERSON (PHILADELPHIA UNIVERSITY + THOMAS JEFFERSON UNIVERSITY), PHILADELPHIA UNIVERSITY, PHILAU, JEFFERSON", "size_set": "25", "inst_size": "3", "pt_enroll": "2411", "ft_enroll": "5875", "tot_enroll": "8286", "housing": "1", "dorm_cap": "1916", "tot_emp": "5653", "shelter_id": "NOT AVAILABLE" }, "geometry": { "type": "Point", "coordinates": [ -8366641.66152604855597, 4858348.739343530498445 ] } },
{ "type": "Feature", "properties": { "fid": 90, "objectid": "1716", "ipedsid": "214971", "name": "PENNSYLVANIA ACADEMY OF THE FINE ARTS", "address": "128 N. BROAD STREET", "city": "PHILADELPHIA", "state": "PA", "zip": "19102", "zip4": "1510", "telephone": "(215) 972-7600", "type": "2", "status": "A", "population": "314", "county": "PHILADELPHIA", "countyfips": "42101", "country": "USA", "latitude": "39.95569159900003", "longitude": "-75.16345631799999", "naics_code": "611310", "naics_desc": "COLLEGES, UNIVERSITIES, AND PROFESSIONAL SCHOOLS", "source": "https://nces.ed.gov/collegenavigator/?id=214971", "sourcedate": "2009-10-13T02:00:00", "val_method": "GEOCODE", "val_date": "2016-07-05T02:00:00", "website": "https://www.pafa.org/", "stfips": "42", "cofips": "101", "sector": "2", "level": "1", "hi_offer": "20", "deg_grant": "1", "locale": "11", "close_date": "-2", "merge_id": "-2", "alias": "PAFA", "size_set": "30", "inst_size": "1", "pt_enroll": "9", "ft_enroll": "179", "tot_enroll": "188", "housing": "1", "dorm_cap": "29", "tot_emp": "126", "shelter_id": "NOT AVAILABLE" }, "geometry": { "type": "Point", "coordinates": [ -8367157.683582220226526, 4859505.590934903360903 ] } },
{ "type": "Feature", "properties": { "fid": 91, "objectid": "2648", "ipedsid": "109086", "name": "AMERICAN CONSERVATORY THEATER", "address": "415 GEARY STREET", "city": "SAN FRANCISCO", "state": "CA", "zip": "94102", "zip4": "NOT AVAILABLE", "telephone": "(415) 834-3200 EXT 2400", "type": "2", "status": "A", "population": "122", "county": "SAN FRANCISCO", "countyfips": "06075", "country": "USA", "latitude": "37.78737167400004", "longitude": "-122.40465541799995", "naics_code": "611310", "naics_desc": "COLLEGES, UNIVERSITIES, AND PROFESSIONAL SCHOOLS", "source": "https://nces.ed.gov/collegenavigator/?id=109086", "sourcedate": "2009-10-13T02:00:00", "val_method": "IMAGERY/OTHER", "val_date": "2015-10-29T01:00:00", "website": "www.act-sf.org/", "stfips": "06", "cofips": "075", "sector": "2", "level": "3", "hi_offer": "20", "deg_grant": "1", "locale": "11", "close_date": "-2", "merge_id": "-2", "alias": "NOT AVAILABLE", "size_set": "30", "inst_size": "1", "pt_enroll": "-999", "ft_enroll": "30", "tot_enroll": "30", "housing": "2", "dorm_cap": "-999", "tot_emp": "92", "shelter_id": "NOT AVAILABLE" }, "geometry": { "type": "Point", "coordinates": [ -13626023.91185786947608, 4549431.953977645374835 ] } },
{ "type": "Feature", "properties": { "fid": 92, "objectid": "2496", "ipedsid": "148335", "name": "ROBERT MORRIS UNIVERSITY ILLINOIS", "address": "401 S STATE STREET", "city": "CHICAGO", "state": "IL", "zip": "60605", "zip4": "NOT AVAILABLE", "telephone": "(312) 935-6800", "type": "2", "status": "C", "population": "-999", "county": "COOK", "countyfips": "17031", "country": "USA", "latitude": "41.87627798400007", "longitude": "-87.62706760899994", "naics_code": "611310", "naics_desc": "COLLEGES, UNIVERSITIES, AND PROFESSIONAL SCHOOLS", "source": "https://nces.ed.gov/collegenavigator/?id=148335", "sourcedate": "2009-10-13T02:00:00", "val_method": "IMAGERY/OTHER", "val_date": "2016-08-05T02:00:00", "website": "https://robertmorris.edu/", "stfips": "17", "cofips": "031", "sector": "2", "level": "1", "hi_offer": "20", "deg_grant": "1", "locale": "11", "close_date": "-2", "merge_id": "148487", "alias": "ROBERT MORRIS COLLEGE RMC RMU", "size_set": "18", "inst_size": "-2", "pt_enroll": "-999", "ft_enroll": "-999", "tot_enroll": "-999", "housing": "-1", "dorm_cap": "-999", "tot_emp": "-999", "shelter_id": "NOT AVAILABLE" }, "geometry": { "type": "Point", "coordinates": [ -9754600.54594162851572, 5142464.465139863081276 ] } },
{ "type": "Feature", "properties": { "fid": 93, "objectid": "1126", "ipedsid": "475033", "name": "RELAY GRADUATE SCHOOL OF EDUCATION", "address": "25 BROADWAY, 3RD FL", "city": "NEW YORK", "state": "NY", "zip": "10004", "zip4": "NOT AVAILABLE", "telephone": "(212) 228-1888", "type": "2", "status": "A", "population": "4199", "county": "NEW YORK", "countyfips": "36061", "country": "USA", "latitude": "40.74050919200005", "longitude": "-73.99341075799998", "naics_code": "611310", "naics_desc": "COLLEGES, UNIVERSITIES, AND PROFESSIONAL SCHOOLS", "source": "https://nces.ed.gov/collegenavigator/?id=475033", "sourcedate": "2013-06-25T02:00:00", "val_method": "IMAGERY/OTHER", "val_date": "2016-05-31T02:00:00", "website": "www.relay.edu/", "stfips": "36", "cofips": "061", "sector": "2", "level": "2", "hi_offer": "20", "deg_grant": "1", "locale": "11", "close_date": "-2", "merge_id": "-2", "alias": "NOT AVAILABLE", "size_set": "32", "inst_size": "2", "pt_enroll": "3790", "ft_enroll": "-999", "tot_enroll": "3790", "housing": "2", "dorm_cap": "-999", "tot_emp": "409", "shelter_id": "NOT AVAILABLE" }, "geometry": { "type": "Point", "coordinates": [ -8236908.80763808824122, 4974141.845021389424801 ] } },
{ "type": "Feature", "properties": { "fid": 94, "objectid": "1509", "ipedsid": "108269", "name": "ACADEMY OF CHINESE CULTURE AND HEALTH SCIENCES", "address": "1600 BROADWAY, STE. 200", "city": "OAKLAND", "state": "CA", "zip": "94612", "zip4": "NOT AVAILABLE", "telephone": "(510) 763-7787 EXT 0", "type": "2", "status": "A", "population": "147", "county": "ALAMEDA", "countyfips": "06001", "country": "USA", "latitude": "37.80597590600007", "longitude": "-122.26982742999996", "naics_code": "611310", "naics_desc": "COLLEGES, UNIVERSITIES, AND PROFESSIONAL SCHOOLS", "source": "https://nces.ed.gov/collegenavigator/?id=108269", "sourcedate": "2009-10-13T02:00:00", "val_method": "IMAGERY/OTHER", "val_date": "2015-10-14T02:00:00", "website": "www.acchs.edu/", "stfips": "06", "cofips": "001", "sector": "2", "level": "1", "hi_offer": "12", "deg_grant": "1", "locale": "11", "close_date": "-2", "merge_id": "-2", "alias": "ACCHS", "size_set": "26", "inst_size": "1", "pt_enroll": "30", "ft_enroll": "67", "tot_enroll": "97", "housing": "2", "dorm_cap": "-999", "tot_emp": "50", "shelter_id": "NOT AVAILABLE" }, "geometry": { "type": "Point", "coordinates": [ -13611014.928889028728008, 4552052.85793801676482 ] } },
{ "type": "Feature", "properties": { "fid": 95, "objectid": "1512", "ipedsid": "190372", "name": "COOPER UNION FOR THE ADVANCEMENT OF SCIENCE AND ART", "address": "7 EAST 7TH STREET", "city": "NEW YORK", "state": "NY", "zip": "10003", "zip4": "7120", "telephone": "(212) 353-4100", "type": "2", "status": "A", "population": "1323", "county": "NEW YORK", "countyfips": "36061", "country": "USA", "latitude": "40.72937982000008", "longitude": "-73.99051616299994", "naics_code": "611310", "naics_desc": "COLLEGES, UNIVERSITIES, AND PROFESSIONAL SCHOOLS", "source": "https://nces.ed.gov/collegenavigator/?id=190372", "sourcedate": "2009-10-13T02:00:00", "val_method": "IMAGERY/OTHER", "val_date": "2016-07-01T02:00:00", "website": "www.cooper.edu/", "stfips": "36", "cofips": "061", "sector": "2", "level": "1", "hi_offer": "20", "deg_grant": "1", "locale": "11", "close_date": "-2", "merge_id": "-2", "alias": "THE COOPER UNION", "size_set": "22", "inst_size": "1", "pt_enroll": "52", "ft_enroll": "835", "tot_enroll": "887", "housing": "1", "dorm_cap": "170", "tot_emp": "436", "shelter_id": "NOT AVAILABLE" }, "geometry": { "type": "Point", "coordinates": [ -8236586.582796630449593, 4972506.822744873352349 ] } },
{ "type": "Feature", "properties": { "fid": 96, "objectid": "3644", "ipedsid": "114354", "name": "FIDM-FASHION INSTITUTE OF DESIGN & MERCHANDISING-LOS ANGELES", "address": "919 S GRAND AVE", "city": "LOS ANGELES", "state": "CA", "zip": "90015", "zip4": "1421", "telephone": "(213) 624-1200", "type": "3", "status": "A", "population": "2327", "county": "LOS ANGELES", "countyfips": "06037", "country": "USA", "latitude": "34.044209436000074", "longitude": "-118.25993006899995", "naics_code": "611310", "naics_desc": "COLLEGES, UNIVERSITIES, AND PROFESSIONAL SCHOOLS", "source": "https://nces.ed.gov/collegenavigator/?id=114354", "sourcedate": "2009-10-13T02:00:00", "val_method": "GEOCODE", "val_date": "2016-07-15T02:00:00", "website": "www.fidm.edu/", "stfips": "06", "cofips": "037", "sector": "3", "level": "2", "hi_offer": "20", "deg_grant": "1", "locale": "11", "close_date": "-2", "merge_id": "-2", "alias": "FIDM LA", "size_set": "30", "inst_size": "2", "pt_enroll": "283", "ft_enroll": "1603", "tot_enroll": "1886", "housing": "2", "dorm_cap": "-999", "tot_emp": "441", "shelter_id": "NOT AVAILABLE" }, "geometry": { "type": "Point", "coordinates": [ -13164635.196529215201735, 4034739.819144267588854 ] } },
{ "type": "Feature", "properties": { "fid": 97, "objectid": "4559", "ipedsid": "185828", "name": "NEW JERSEY INSTITUTE OF TECHNOLOGY", "address": "UNIVERSITY HEIGHTS", "city": "NEWARK", "state": "NJ", "zip": "07102", "zip4": "NOT AVAILABLE", "telephone": "(973) 596-3000", "type": "1", "status": "A", "population": "13482", "county": "ESSEX", "countyfips": "34013", "country": "USA", "latitude": "40.741997000000026", "longitude": "-74.17711299999996", "naics_code": "611310", "naics_desc": "COLLEGES, UNIVERSITIES, AND PROFESSIONAL SCHOOLS", "source": "https://nces.ed.gov/collegenavigator/?id=185828", "sourcedate": "2009-12-31T01:00:00", "val_method": "IMAGERY", "val_date": "2016-06-03T02:00:00", "website": "www.njit.edu/", "stfips": "34", "cofips": "013", "sector": "1", "level": "1", "hi_offer": "12", "deg_grant": "1", "locale": "11", "close_date": "-2", "merge_id": "-2", "alias": "NJIT", "size_set": "16", "inst_size": "4", "pt_enroll": "2903", "ft_enroll": "8749", "tot_enroll": "11652", "housing": "1", "dorm_cap": "1960", "tot_emp": "1830", "shelter_id": "NOT AVAILABLE" }, "geometry": { "type": "Point", "coordinates": [ -8257358.447675108909607, 4974360.440456612966955 ] } },
{ "type": "Feature", "properties": { "fid": 98, "objectid": "1150", "ipedsid": "126678", "name": "COLORADO COLLEGE", "address": "14. E CACHE LA POUDRE ST.", "city": "COLORADO SPRINGS", "state": "CO", "zip": "80903", "zip4": "NOT AVAILABLE", "telephone": "(719) 389-6000", "type": "2", "status": "A", "population": "2964", "county": "EL PASO", "countyfips": "08041", "country": "USA", "latitude": "38.84885428300004", "longitude": "-104.82267810899998", "naics_code": "611310", "naics_desc": "COLLEGES, UNIVERSITIES, AND PROFESSIONAL SCHOOLS", "source": "https://nces.ed.gov/collegenavigator/?id=126678", "sourcedate": "2009-12-10T01:00:00", "val_method": "IMAGERY", "val_date": "2016-07-28T02:00:00", "website": "www.coloradocollege.edu/", "stfips": "08", "cofips": "041", "sector": "2", "level": "3", "hi_offer": "20", "deg_grant": "1", "locale": "11", "close_date": "-2", "merge_id": "-2", "alias": "NOT AVAILABLE", "size_set": "21", "inst_size": "2", "pt_enroll": "157", "ft_enroll": "1893", "tot_enroll": "2050", "housing": "1", "dorm_cap": "1981", "tot_emp": "914", "shelter_id": "NOT AVAILABLE" }, "geometry": { "type": "Point", "coordinates": [ -11668807.150681102648377, 4700044.312320828437805 ] } },
{ "type": "Feature", "properties": { "fid": 99, "objectid": "1271", "ipedsid": "366368", "name": "NEW YORK ACADEMY OF ART", "address": "111 FRANKLIN ST", "city": "NEW YORK", "state": "NY", "zip": "10013", "zip4": "2911", "telephone": "(212) 966-0300", "type": "2", "status": "A", "population": "211", "county": "NEW YORK", "countyfips": "36061", "country": "USA", "latitude": "40.718388041000026", "longitude": "-74.00601856899993", "naics_code": "611310", "naics_desc": "COLLEGES, UNIVERSITIES, AND PROFESSIONAL SCHOOLS", "source": "https://nces.ed.gov/collegenavigator/?id=366368", "sourcedate": "2009-10-13T02:00:00", "val_method": "IMAGERY/OTHER", "val_date": "2016-06-15T02:00:00", "website": "nyaa.edu/", "stfips": "36", "cofips": "061", "sector": "2", "level": "1", "hi_offer": "20", "deg_grant": "1", "locale": "11", "close_date": "-2", "merge_id": "-2", "alias": "NOT AVAILABLE", "size_set": "30", "inst_size": "1", "pt_enroll": "1", "ft_enroll": "96", "tot_enroll": "97", "housing": "2", "dorm_cap": "-999", "tot_emp": "114", "shelter_id": "NOT AVAILABLE" }, "geometry": { "type": "Point", "coordinates": [ -8238312.30273862183094, 4970892.28271803073585 ] } },
{ "type": "Feature", "properties": { "fid": 100, "objectid": "1761", "ipedsid": "199643", "name": "SHAW UNIVERSITY", "address": "118 EAST SOUTH STREET", "city": "RALEIGH", "state": "NC", "zip": "27601", "zip4": "NOT AVAILABLE", "telephone": "(919) 546-8200", "type": "2", "status": "A", "population": "1609", "county": "WAKE", "countyfips": "37183", "country": "USA", "latitude": "35.77118068600004", "longitude": "-78.63769318499999", "naics_code": "611310", "naics_desc": "COLLEGES, UNIVERSITIES, AND PROFESSIONAL SCHOOLS", "source": "https://nces.ed.gov/collegenavigator/?id=199643", "sourcedate": "2009-10-13T02:00:00", "val_method": "IMAGERY/OTHER", "val_date": "2016-07-07T02:00:00", "website": "www.shawu.edu/", "stfips": "37", "cofips": "183", "sector": "2", "level": "2", "hi_offer": "20", "deg_grant": "1", "locale": "11", "close_date": "-2", "merge_id": "-2", "alias": "NOT AVAILABLE", "size_set": "22", "inst_size": "2", "pt_enroll": "148", "ft_enroll": "1135", "tot_enroll": "1283", "housing": "1", "dorm_cap": "1095", "tot_emp": "326", "shelter_id": "NOT AVAILABLE" }, "geometry": { "type": "Point", "coordinates": [ -8753907.962511876598001, 4269181.693782353773713 ] } },
{ "type": "Feature", "properties": { "fid": 101, "objectid": "1044", "ipedsid": "193900", "name": "NEW YORK UNIVERSITY", "address": "70 WASHINGTON SQ SOUTH", "city": "NEW YORK", "state": "NY", "zip": "10012", "zip4": "1091", "telephone": "(212) 998-1212", "type": "2", "status": "A", "population": "76559", "county": "NEW YORK", "countyfips": "36061", "country": "USA", "latitude": "40.72945190400003", "longitude": "-73.99726389699998", "naics_code": "611310", "naics_desc": "COLLEGES, UNIVERSITIES, AND PROFESSIONAL SCHOOLS", "source": "https://nces.ed.gov/collegenavigator/?id=193900", "sourcedate": "2009-10-13T02:00:00", "val_method": "IMAGERY/OTHER", "val_date": "2016-06-14T02:00:00", "website": "www.nyu.edu/", "stfips": "36", "cofips": "061", "sector": "2", "level": "2", "hi_offer": "11", "deg_grant": "1", "locale": "11", "close_date": "-2", "merge_id": "-2", "alias": "NOT AVAILABLE", "size_set": "15", "inst_size": "5", "pt_enroll": "8728", "ft_enroll": "44047", "tot_enroll": "52775", "housing": "1", "dorm_cap": "12985", "tot_emp": "23784", "shelter_id": "NOT AVAILABLE" }, "geometry": { "type": "Point", "coordinates": [ -8237337.737109524197876, 4972517.411765760742128 ] } }
]
}
